hotel_id,city_id,city,hotel_name,score,description,url,latitude,longitude
1,1,Mont Saint Michel,Mercure Le Pré salé,4.0,Route du Mont Saint-Michel,https://www.booking.com/search.html?ss=Mercure+Le+Pré+salé,48.6142537,-1.5108723
2,1,Mont Saint Michel,Hôtel Vert,2.0,Route du Mont Saint-Michel,https://www.booking.com/search.html?ss=Hôtel+Vert,48.6149102,-1.5093502
3,1,Mont Saint Michel,Hôtel - Restaurant La Mère Poulard,3.0,Grande Rue - BP 18,https://www.booking.com/search.html?ss=Hôtel+-+Restaurant+La+Mère+Poulard,48.6350826,-1.5109144
4,1,Mont Saint Michel,Ermitage,3.0,Non renseigné,https://www.booking.com/search.html?ss=Ermitage,48.6356131,-1.5104074
5,1,Mont Saint Michel,Hôtel - Restaurant Du Guesclin,2.0,Grande Rue,https://www.booking.com/search.html?ss=Hôtel+-+Restaurant+Du+Guesclin,48.6356147,-1.5098978
6,1,Mont Saint Michel,Hôtel de la Digue,3.0,Barrage du Mont Saint-Michel,https://www.booking.com/search.html?ss=Hôtel+de+la+Digue,48.6168379,-1.5111111
7,1,Mont Saint Michel,Le Relais Saint-Michel,4.0,Barrage du Mont Saint-Michel,https://www.booking.com/search.html?ss=Le+Relais+Saint-Michel,48.6177313,-1.5103823
8,1,Mont Saint Michel,Hôtel Restaurant Le Beauvoir,3.0,Non renseigné,https://www.booking.com/search.html?ss=Hôtel+Restaurant+Le+Beauvoir,48.5977691,-1.5131776
9,1,Mont Saint Michel,Le Relais du Roy,3.0,Non renseigné,https://www.booking.com/search.html?ss=Le+Relais+du+Roy,48.6163087,-1.5110769
10,1,Mont Saint Michel,Résidence MMV Le Domaine du Mont,3.0,"Route de la Baie, L'Hôpital",https://www.booking.com/search.html?ss=Résidence+MMV+Le+Domaine+du+Mont,48.5938054,-1.5963356
11,1,Mont Saint Michel,Manoir Roche Torin,3.0,Non renseigné,https://www.booking.com/search.html?ss=Manoir+Roche+Torin,48.6373639,-1.4249973
12,1,Mont Saint Michel,La Maison Rouge,3.0,Non renseigné,https://www.booking.com/search.html?ss=La+Maison+Rouge,48.6353087,-1.510657
13,1,Mont Saint Michel,Au Ptit Quinquin,2.0,Les Forges,https://www.booking.com/search.html?ss=Au+Ptit+Quinquin,48.6270958,-1.3880533
14,1,Mont Saint Michel,Les Terrasses Poulard,3.0,Non renseigné,https://www.booking.com/search.html?ss=Les+Terrasses+Poulard,48.6352034,-1.5103857
15,1,Mont Saint Michel,Hôtel Rose,3.0,Non renseigné,https://www.booking.com/search.html?ss=Hôtel+Rose,48.5971697,-1.5135254
16,1,Mont Saint Michel,La Tour Brette,3.0,Non renseigné,https://www.booking.com/search.html?ss=La+Tour+Brette,48.5531869,-1.5126215
17,1,Mont Saint Michel,Auberge de la Baie,3.0,Non renseigné,https://www.booking.com/search.html?ss=Auberge+de+la+Baie,48.615971,-1.4884068
18,1,Mont Saint Michel,Hôtel L'Auberge Saint-Pierre,3.0,Non renseigné,https://www.booking.com/search.html?ss=Hôtel+L'Auberge+Saint-Pierre,48.6353774,-1.509986
19,1,Mont Saint Michel,Mercure Mont Saint Michel,3.0,Non renseigné,https://www.booking.com/search.html?ss=Mercure+Mont+Saint+Michel,48.6142662,-1.5107037
20,1,Mont Saint Michel,Le Saint-Aubert,2.0,Non renseigné,https://www.booking.com/search.html?ss=Le+Saint-Aubert,48.6135922,-1.5091181
21,2,St Malo,Ibis Styles,3.0,Non renseigné,https://www.booking.com/search.html?ss=Ibis+Styles,48.6486267,-2.0239888
22,2,St Malo,Hôtel de l'Univers,3.0,Non renseigné,https://www.booking.com/search.html?ss=Hôtel+de+l'Univers,48.6510826,-2.0239307
23,2,St Malo,Ajoncs d'Or,3.0,Rue des Forgeurs,https://www.booking.com/search.html?ss=Ajoncs+d'Or,48.6474678,-2.0252029
24,2,St Malo,Hôtel des Abers,3.0,Rue de la Corne de Cerf,https://www.booking.com/search.html?ss=Hôtel+des+Abers,48.6505034,-2.0248745
25,2,St Malo,Hôtel de la Houle,3.0,Non renseigné,https://www.booking.com/search.html?ss=Hôtel+de+la+Houle,48.6252282,-2.1366784
26,2,St Malo,Hôtel d'Aleth,3.0,Non renseigné,https://www.booking.com/search.html?ss=Hôtel+d'Aleth,48.6359308,-2.0217775
27,2,St Malo,Gîte La Ville Auray,3.0,Non renseigné,https://www.booking.com/search.html?ss=Gîte+La+Ville+Auray,48.6581057,-1.9544006
28,2,St Malo,La Vallée,3.0,Avenue George V,https://www.booking.com/search.html?ss=La+Vallée,48.6362285,-2.0484832
29,2,St Malo,Hôtel de la Porte Saint-Pierre,2.0,Non renseigné,https://www.booking.com/search.html?ss=Hôtel+de+la+Porte+Saint-Pierre,48.6479494,-2.0282119
30,2,St Malo,Hôtel Mercure Balmoral,4.0,Non renseigné,https://www.booking.com/search.html?ss=Hôtel+Mercure+Balmoral,48.6464714,-2.0061619
31,2,St Malo,Sezam,3.0,Non renseigné,https://www.booking.com/search.html?ss=Sezam,48.6478069,-2.0085933
32,2,St Malo,La Marinière,2.0,Non renseigné,https://www.booking.com/search.html?ss=La+Marinière,48.6470559,-2.0086227
33,2,St Malo,Ker Annick,3.0,Non renseigné,https://www.booking.com/search.html?ss=Ker+Annick,48.6470551,-2.0087773
34,2,St Malo,Le Britannic,3.0,Non renseigné,https://www.booking.com/search.html?ss=Le+Britannic,48.6472243,-2.0087038
35,2,St Malo,Hôtel de la Cité,3.0,Non renseigné,https://www.booking.com/search.html?ss=Hôtel+de+la+Cité,48.6512504,-2.0251622
36,2,St Malo,La Maison des Armateurs,3.0,Non renseigné,https://www.booking.com/search.html?ss=La+Maison+des+Armateurs,48.6490907,-2.0245093
37,2,St Malo,Hôtel San Pedro,2.0,Rue du Boyer,https://www.booking.com/search.html?ss=Hôtel+San+Pedro,48.6490953,-2.0278573
38,2,St Malo,Hôtel des Marins,3.0,Rue des Marins,https://www.booking.com/search.html?ss=Hôtel+des+Marins,48.6488754,-2.0248533
39,2,St Malo,Le Nautilus,3.0,Rue de la Corne de Cerf,https://www.booking.com/search.html?ss=Le+Nautilus,48.6507279,-2.0249312
40,2,St Malo,La Maison Vauban,3.0,Rue Toullier,https://www.booking.com/search.html?ss=La+Maison+Vauban,48.6500699,-2.0268663
41,2,St Malo,Hôtel Anne de Bretagne,3.0,Non renseigné,https://www.booking.com/search.html?ss=Hôtel+Anne+de+Bretagne,48.6506328,-2.0247233
42,2,St Malo,Hôtel Bristol Union,2.0,Non renseigné,https://www.booking.com/search.html?ss=Hôtel+Bristol+Union,48.649602,-2.024286
43,2,St Malo,Le Croiseur,3.0,Place de la Poissonnerie,https://www.booking.com/search.html?ss=Le+Croiseur,48.6496106,-2.0245515
44,2,St Malo,Hôtel Cartier,3.0,Rue Saint-Vincent,https://www.booking.com/search.html?ss=Hôtel+Cartier,48.6500289,-2.0247872
45,2,St Malo,Hôtel Otonali,3.0,Non renseigné,https://www.booking.com/search.html?ss=Hôtel+Otonali,48.6522813,-2.011459
46,2,St Malo,L'Adressse,4.0,Rue des Poulieurs,https://www.booking.com/search.html?ss=L'Adressse,48.6519467,-2.0170092
47,2,St Malo,Le Rockabilly,3.0,Boulevard de la Tour d'Auvergne,https://www.booking.com/search.html?ss=Le+Rockabilly,48.6517523,-2.0080651
48,2,St Malo,Hôtel Quic en Groigne,3.0,Non renseigné,https://www.booking.com/search.html?ss=Hôtel+Quic+en+Groigne,48.6468525,-2.0270257
49,2,St Malo,Le Nessay,4.0,Non renseigné,https://www.booking.com/search.html?ss=Le+Nessay,48.6239012,-2.1428489
50,2,St Malo,Le Terminus,2.0,Non renseigné,https://www.booking.com/search.html?ss=Le+Terminus,48.6467721,-2.0086193
51,2,St Malo,Hôtel Balmoral,3.0,Non renseigné,https://www.booking.com/search.html?ss=Hôtel+Balmoral,48.6330865,-2.0537661
52,2,St Malo,Hôtel Kan Avel,3.0,Non renseigné,https://www.booking.com/search.html?ss=Hôtel+Kan+Avel,48.6346355,-2.1080531
53,2,St Malo,Ar Iniz,3.0,Boulevard Hébert,https://www.booking.com/search.html?ss=Ar+Iniz,48.6619458,-1.9920722
54,2,St Malo,Hôtel Printania,3.0,Non renseigné,https://www.booking.com/search.html?ss=Hôtel+Printania,48.6355324,-2.0489073
55,2,St Malo,Hôtel de la Mer,3.0,Non renseigné,https://www.booking.com/search.html?ss=Hôtel+de+la+Mer,48.6560982,-2.0023517
56,2,St Malo,Les Tilleuls,3.0,Non renseigné,https://www.booking.com/search.html?ss=Les+Tilleuls,48.6308807,-2.0610711
57,2,St Malo,Armoricaine,3.0,Non renseigné,https://www.booking.com/search.html?ss=Armoricaine,48.648952,-2.0274415
58,2,St Malo,Elizabeth,3.0,Non renseigné,https://www.booking.com/search.html?ss=Elizabeth,48.6476464,-2.0244178
59,2,St Malo,Port Malo,3.0,Non renseigné,https://www.booking.com/search.html?ss=Port+Malo,48.6509499,-2.02472
60,2,St Malo,Ar Terra Nova,3.0,Rue Godard,https://www.booking.com/search.html?ss=Ar+Terra+Nova,48.6364705,-2.0140681
61,2,St Malo,Alexandra,4.0,Non renseigné,https://www.booking.com/search.html?ss=Alexandra,48.6573613,-2.0014939
62,2,St Malo,Le Magellan,3.0,Non renseigné,https://www.booking.com/search.html?ss=Le+Magellan,48.6632309,-1.9890351
63,2,St Malo,Château Hôtel du Colombier,3.0,Non renseigné,https://www.booking.com/search.html?ss=Château+Hôtel+du+Colombier,48.637874,-1.9678985
64,4,Le Havre,Campanile,3.0,Non renseigné,https://www.booking.com/search.html?ss=Campanile,49.5337715,0.1870905
65,4,Le Havre,Le Cordon Bleu,3.0,Non renseigné,https://www.booking.com/search.html?ss=Le+Cordon+Bleu,49.5017082,0.2171022
66,4,Le Havre,Best western Art hôtel,3.0,Rue Louis Brindeau,https://www.booking.com/search.html?ss=Best+western+Art+hôtel,49.4912002,0.1065071
67,4,Le Havre,Hôtel et Spa Vent d'Ouest,4.0,Rue de Caligny,https://www.booking.com/search.html?ss=Hôtel+et+Spa+Vent+d'Ouest,49.4913783,0.1007815
68,4,Le Havre,Le Marignan,3.0,Boulevard de Strasbourg,https://www.booking.com/search.html?ss=Le+Marignan,49.4923501,0.1230654
69,4,Le Havre,Hôtel du Pasino du Havre,4.0,Non renseigné,https://www.booking.com/search.html?ss=Hôtel+du+Pasino+du+Havre,49.4913744,0.1117003
70,4,Le Havre,Hôtel Richelieu,3.0,Rue de Paris,https://www.booking.com/search.html?ss=Hôtel+Richelieu,49.4888102,0.1076957
71,4,Le Havre,Ibis Le Havre Centre,3.0,Rue du Cent Vingt Neuvième,https://www.booking.com/search.html?ss=Ibis+Le+Havre+Centre,49.4916688,0.1186438
72,4,Le Havre,Hôtel Parisien,3.0,Cours de la République,https://www.booking.com/search.html?ss=Hôtel+Parisien,49.4924223,0.1235931
73,4,Le Havre,Oscar Hôtel,3.0,Rue Voltaire,https://www.booking.com/search.html?ss=Oscar+Hôtel,49.4897719,0.1072404
74,4,Le Havre,B&B Hotel Le Havre Centre,3.0,Cours de la République,https://www.booking.com/search.html?ss=B&B+Hotel+Le+Havre+Centre,49.4981747,0.1287718
75,4,Le Havre,Ibis Styles,3.0,Rue de Paris,https://www.booking.com/search.html?ss=Ibis+Styles,49.488449,0.1073403
76,4,Le Havre,Carmin,3.0,Rue Georges Braque,https://www.booking.com/search.html?ss=Carmin,49.494874,0.1054936
77,4,Le Havre,Nomad Hotel,3.0,Rue Magellan,https://www.booking.com/search.html?ss=Nomad+Hotel,49.4933607,0.1255593
78,4,Le Havre,Inter-Hotel Terminus,3.0,Cours de la République,https://www.booking.com/search.html?ss=Inter-Hotel+Terminus,49.4932665,0.1243496
79,4,Le Havre,Sans détour,3.0,Non renseigné,https://www.booking.com/search.html?ss=Sans+détour,49.4922834,0.1158505
80,4,Le Havre,La petite rade,3.0,Place Clemenceau,https://www.booking.com/search.html?ss=La+petite+rade,49.5023684,0.0859642
81,4,Le Havre,Kyriad Hôtel,3.0,Rue des Castors,https://www.booking.com/search.html?ss=Kyriad+Hôtel,49.5331586,0.1802727
82,4,Le Havre,Hilton Garden Inn Le Havre Centre,4.0,Boulevard Clemenceau,https://www.booking.com/search.html?ss=Hilton+Garden+Inn+Le+Havre+Centre,49.4899549,0.0978114
83,4,Le Havre,Odalys City,3.0,Quai Colbert,https://www.booking.com/search.html?ss=Odalys+City,49.4926319,0.1297033
84,4,Le Havre,Hôtel d'Angleterre,3.0,Non renseigné,https://www.booking.com/search.html?ss=Hôtel+d'Angleterre,49.4940531,0.0993652
85,4,Le Havre,Smart Appart Le Havre,3.0,Cours de la République,https://www.booking.com/search.html?ss=Smart+Appart+Le+Havre,49.4965016,0.1268417
86,4,Le Havre,Birgit,3.0,Quai Colbert,https://www.booking.com/search.html?ss=Birgit,49.4931742,0.1307178
87,4,Le Havre,La Bonne Adresse,3.0,Rue du Général de Gaulle,https://www.booking.com/search.html?ss=La+Bonne+Adresse,49.5032443,0.0887902
88,4,Le Havre,Zenao Apart'hôtel,3.0,Rue Jean Jaurès,https://www.booking.com/search.html?ss=Zenao+Apart'hôtel,49.5463074,0.2050757
89,4,Le Havre,Le Cormoran,3.0,Non renseigné,https://www.booking.com/search.html?ss=Le+Cormoran,49.4856912,0.2098412
90,5,Rouen,Ibis Rouen Champs de Mars,3.0,Non renseigné,https://www.booking.com/search.html?ss=Ibis+Rouen+Champs+de+Mars,49.4357213,1.1036174
91,5,Rouen,Hôtel Mercure Rouen Champ de Mars,4.0,Non renseigné,https://www.booking.com/search.html?ss=Hôtel+Mercure+Rouen+Champ+de+Mars,49.4358557,1.103843
92,5,Rouen,Novotel,3.0,Non renseigné,https://www.booking.com/search.html?ss=Novotel,49.4432137,1.075316
93,5,Rouen,Hôtel de Dieppe,4.0,Place Bernard Tissot,https://www.booking.com/search.html?ss=Hôtel+de+Dieppe,49.4483045,1.0934192
94,5,Rouen,La Bertelière,3.0,Avenue du Mesnil Grémichon,https://www.booking.com/search.html?ss=La+Bertelière,49.4665368,1.1516414
95,5,Rouen,Ibis Budget,2.0,Rue du Mont Perreux,https://www.booking.com/search.html?ss=Ibis+Budget,49.4901738,1.1447842
96,5,Rouen,Le Relais de Montigny,3.0,Rue du Lieutenant Aubert,https://www.booking.com/search.html?ss=Le+Relais+de+Montigny,49.4590142,0.9983604
97,5,Rouen,Ibis,3.0,Non renseigné,https://www.booking.com/search.html?ss=Ibis,49.3916723,1.0592499
98,5,Rouen,ibis Styles Rouen Centre Cathédrale,3.0,Place de la République,https://www.booking.com/search.html?ss=ibis+Styles+Rouen+Centre+Cathédrale,49.4377239,1.0958457
99,5,Rouen,Le Corneille,3.0,Rue Pierre Corneille,https://www.booking.com/search.html?ss=Le+Corneille,49.4182198,1.0969045
100,5,Rouen,Campanile Rouen Nord,3.0,Non renseigné,https://www.booking.com/search.html?ss=Campanile+Rouen+Nord,49.4770033,1.0934509
101,5,Rouen,Eden Hotel Rouen,3.0,Rue Gustave Eiffel,https://www.booking.com/search.html?ss=Eden+Hotel+Rouen,49.4742805,1.1043269
102,5,Rouen,Hôtel Campanile,3.0,Non renseigné,https://www.booking.com/search.html?ss=Hôtel+Campanile,49.40323,1.160757
103,5,Rouen,Le Cardinal,2.0,Non renseigné,https://www.booking.com/search.html?ss=Le+Cardinal,49.4399152,1.0937419
104,5,Rouen,Hôtel Notre-Dame,3.0,Non renseigné,https://www.booking.com/search.html?ss=Hôtel+Notre-Dame,49.4385577,1.0936682
105,5,Rouen,Lemon Hôtel,3.0,Non renseigné,https://www.booking.com/search.html?ss=Lemon+Hôtel,49.4117344,1.1540687
106,5,Rouen,Campanile,3.0,Non renseigné,https://www.booking.com/search.html?ss=Campanile,49.3689059,1.1110064
107,5,Rouen,Premiere Classe,3.0,Non renseigné,https://www.booking.com/search.html?ss=Premiere+Classe,49.3692745,1.1108857
108,5,Rouen,B&B Hôtel,3.0,Non renseigné,https://www.booking.com/search.html?ss=B&B+Hôtel,49.36925,1.1120552
109,5,Rouen,Brit Hotel Rouen Centre,3.0,Boulevard Gambetta,https://www.booking.com/search.html?ss=Brit+Hotel+Rouen+Centre,49.4387838,1.109288
110,5,Rouen,Hôtel Astrid,2.0,Non renseigné,https://www.booking.com/search.html?ss=Hôtel+Astrid,49.4482638,1.0938408
111,5,Rouen,Hôtel de la Cathédrale,3.0,Non renseigné,https://www.booking.com/search.html?ss=Hôtel+de+la+Cathédrale,49.4401433,1.0969667
112,5,Rouen,Les Initiés,2.0,Non renseigné,https://www.booking.com/search.html?ss=Les+Initiés,49.4419592,1.0924073
113,5,Rouen,Hôtel Dandy,3.0,Non renseigné,https://www.booking.com/search.html?ss=Hôtel+Dandy,49.4452871,1.0867145
114,5,Rouen,Le Vieux Carré,3.0,Non renseigné,https://www.booking.com/search.html?ss=Le+Vieux+Carré,49.4434522,1.0946477
115,5,Rouen,Hôtel Art & Seine,3.0,Non renseigné,https://www.booking.com/search.html?ss=Hôtel+Art+&+Seine,49.4389431,1.0920081
116,5,Rouen,Mercure,4.0,Non renseigné,https://www.booking.com/search.html?ss=Mercure,49.4411955,1.0950959
117,5,Rouen,Hôtel de Lille,3.0,Non renseigné,https://www.booking.com/search.html?ss=Hôtel+de+Lille,49.4326196,1.0898279
118,5,Rouen,Hôtel de l’Europe,3.0,Non renseigné,https://www.booking.com/search.html?ss=Hôtel+de+l’Europe,49.4411075,1.0892158
119,5,Rouen,Terres de France - Rouen Flaubert,3.0,Avenue Jean Rondeaux,https://www.booking.com/search.html?ss=Terres+de+France+-+Rouen+Flaubert,49.4347136,1.0768052
120,5,Rouen,ibis Rouen Centre Rive Gauche Saint-Sever,3.0,Non renseigné,https://www.booking.com/search.html?ss=ibis+Rouen+Centre+Rive+Gauche+Saint-Sever,49.4317572,1.0821912
121,5,Rouen,Hôtel des Arcades,1.0,Rue des Carmes,https://www.booking.com/search.html?ss=Hôtel+des+Arcades,49.4417782,1.0947581
122,5,Rouen,Hôtel Littéraire Gustave Flaubert,4.0,Non renseigné,https://www.booking.com/search.html?ss=Hôtel+Littéraire+Gustave+Flaubert,49.4426129,1.086776
123,5,Rouen,Le Palais,3.0,Rue du Tambour,https://www.booking.com/search.html?ss=Le+Palais,49.4422186,1.0911226
124,5,Rouen,Hôtel Morand,2.0,Rue Morand,https://www.booking.com/search.html?ss=Hôtel+Morand,49.4456838,1.094502
125,5,Rouen,Hôtel d'Angleterre,3.0,Non renseigné,https://www.booking.com/search.html?ss=Hôtel+d'Angleterre,49.4395714,1.0872848
126,5,Rouen,Hôtel des Carmes,3.0,Non renseigné,https://www.booking.com/search.html?ss=Hôtel+des+Carmes,49.4422051,1.095507
127,5,Rouen,Hôtel Céline,3.0,Non renseigné,https://www.booking.com/search.html?ss=Hôtel+Céline,49.4490702,1.0900882
128,6,Paris,Novotel Paris La Défense Nanterre,3.0,Rue des Trois Fontanot,https://www.booking.com/search.html?ss=Novotel+Paris+La+Défense+Nanterre,48.8961485,2.2194691
129,6,Paris,Mercure,4.0,Non renseigné,https://www.booking.com/search.html?ss=Mercure,48.8952476,2.223544
130,6,Paris,Ibis,3.0,Non renseigné,https://www.booking.com/search.html?ss=Ibis,48.8403064,2.3155776
131,6,Paris,Hôtel Saint-Honoré,3.0,Non renseigné,https://www.booking.com/search.html?ss=Hôtel+Saint-Honoré,48.8611819,2.3436118
132,6,Paris,Hôtel Montpensier,2.0,Non renseigné,https://www.booking.com/search.html?ss=Hôtel+Montpensier,48.8643588,2.3362645
133,6,Paris,Hôtel Louvre Bon Enfants,3.0,Non renseigné,https://www.booking.com/search.html?ss=Hôtel+Louvre+Bon+Enfants,48.8629098,2.3381793
134,6,Paris,Hôtel Costes,3.0,Rue de Castiglione,https://www.booking.com/search.html?ss=Hôtel+Costes,48.8662827,2.3280089
135,6,Paris,Résidence les Boulevards,4.0,Rue de la Villeneuve,https://www.booking.com/search.html?ss=Résidence+les+Boulevards,48.8696872,2.3486973
136,6,Paris,Hôtel Marie,3.0,Rue de la Villeneuve,https://www.booking.com/search.html?ss=Hôtel+Marie,48.8695728,2.348676
137,6,Paris,Hôtel du Loiret,3.0,Non renseigné,https://www.booking.com/search.html?ss=Hôtel+du+Loiret,48.8569202,2.3552931
138,6,Paris,Charles V,3.0,Non renseigné,https://www.booking.com/search.html?ss=Charles+V,48.8534874,2.3618354
139,6,Paris,Hôtel de la Place des Vosges,3.0,Non renseigné,https://www.booking.com/search.html?ss=Hôtel+de+la+Place+des+Vosges,48.8544261,2.3652418
140,6,Paris,Hôtel Port-Royal,3.0,Non renseigné,https://www.booking.com/search.html?ss=Hôtel+Port-Royal,48.8371263,2.350581
141,6,Paris,Le Clos Medicis,3.0,Non renseigné,https://www.booking.com/search.html?ss=Le+Clos+Medicis,48.8482841,2.3405763
142,6,Paris,L'Hôtel,5.0,Non renseigné,https://www.booking.com/search.html?ss=L'Hôtel,48.8563424,2.3352399
143,6,Paris,Victoria Palace Hôtel,4.0,Non renseigné,https://www.booking.com/search.html?ss=Victoria+Palace+Hôtel,48.8457742,2.3243407
144,6,Paris,Le Petit Chomel,3.0,Non renseigné,https://www.booking.com/search.html?ss=Le+Petit+Chomel,48.8519344,2.3253667
145,6,Paris,Signature,4.0,Non renseigné,https://www.booking.com/search.html?ss=Signature,48.8521505,2.326091
146,6,Paris,Hôtel du Champ de Mars,3.0,Non renseigné,https://www.booking.com/search.html?ss=Hôtel+du+Champ+de+Mars,48.856397,2.3060759
147,6,Paris,Hôtel Saint-Dominique,3.0,Non renseigné,https://www.booking.com/search.html?ss=Hôtel+Saint-Dominique,48.8599286,2.308788
148,6,Paris,Hôtel Duquesne Eiffel,3.0,Non renseigné,https://www.booking.com/search.html?ss=Hôtel+Duquesne+Eiffel,48.8526441,2.3090461
149,6,Paris,Hôtel de la Tulipe,3.0,Non renseigné,https://www.booking.com/search.html?ss=Hôtel+de+la+Tulipe,48.8599838,2.3062819
150,6,Paris,Grand Hôtel Leveque,3.0,Non renseigné,https://www.booking.com/search.html?ss=Grand+Hôtel+Leveque,48.8571307,2.3063556
151,6,Paris,Timhôtel Best Western Tour Eiffel Invalides,3.0,Non renseigné,https://www.booking.com/search.html?ss=Timhôtel+Best+Western+Tour+Eiffel+Invalides,48.8604075,2.3104739
152,6,Paris,Four Seasons Hôtel George V,3.0,Avenue George V,https://www.booking.com/search.html?ss=Four+Seasons+Hôtel+George+V,48.868784,2.3006774
153,6,Paris,Matissia,4.0,Non renseigné,https://www.booking.com/search.html?ss=Matissia,48.876717,2.3485948
154,6,Paris,Hôtel du Terrage,3.0,Non renseigné,https://www.booking.com/search.html?ss=Hôtel+du+Terrage,48.8774454,2.3624214
155,6,Paris,Hôtel Brady,3.0,Non renseigné,https://www.booking.com/search.html?ss=Hôtel+Brady,48.8711954,2.3550205
156,6,Paris,New Hotel Republique,3.0,Non renseigné,https://www.booking.com/search.html?ss=New+Hotel+Republique,48.8661043,2.3685294
157,6,Paris,Grand Hôtel Nouvel Opera,3.0,Non renseigné,https://www.booking.com/search.html?ss=Grand+Hôtel+Nouvel+Opera,48.8551772,2.3787982
158,6,Paris,Hôtel du Nord et de l'Est,3.0,Non renseigné,https://www.booking.com/search.html?ss=Hôtel+du+Nord+et+de+l'Est,48.8658412,2.367479
159,6,Paris,Hôtel Parisianer,3.0,Non renseigné,https://www.booking.com/search.html?ss=Hôtel+Parisianer,48.8456578,2.3753746
160,6,Paris,Hôtel Prince Albert,3.0,Non renseigné,https://www.booking.com/search.html?ss=Hôtel+Prince+Albert,48.8467986,2.3778628
161,6,Paris,9 Hôtel Bastille-Lyon,3.0,Rue de Lyon,https://www.booking.com/search.html?ss=9+Hôtel+Bastille-Lyon,48.8473827,2.3714639
162,6,Paris,Paris Reuilly - Aparthotels Adagio,3.0,Non renseigné,https://www.booking.com/search.html?ss=Paris+Reuilly+-+Aparthotels+Adagio,48.8490103,2.3856902
163,6,Paris,Hôtel Palym,3.0,Non renseigné,https://www.booking.com/search.html?ss=Hôtel+Palym,48.8462381,2.3733925
164,6,Paris,Novotel,3.0,Non renseigné,https://www.booking.com/search.html?ss=Novotel,48.8452783,2.3754729
165,6,Paris,Kyriad Italie Gobelins,3.0,Non renseigné,https://www.booking.com/search.html?ss=Kyriad+Italie+Gobelins,48.8337711,2.3550065
166,6,Paris,Ibis Styles - Butte aux Cailles,3.0,Rue Barrault,https://www.booking.com/search.html?ss=Ibis+Styles+-+Butte+aux+Cailles,48.8283394,2.3473619
167,6,Paris,Jack's,3.0,Non renseigné,https://www.booking.com/search.html?ss=Jack's,48.8329489,2.3593174
168,6,Paris,La Manufacture,3.0,Non renseigné,https://www.booking.com/search.html?ss=La+Manufacture,48.8329337,2.355328
169,6,Paris,Mercure Gobelins,3.0,Non renseigné,https://www.booking.com/search.html?ss=Mercure+Gobelins,48.8321073,2.3538107
170,6,Paris,Holiday Inn Express Paris place d'Italie,3.0,Non renseigné,https://www.booking.com/search.html?ss=Holiday+Inn+Express+Paris+place+d'Italie,48.8316326,2.3573399
171,6,Paris,Le Parc,3.0,Non renseigné,https://www.booking.com/search.html?ss=Le+Parc,48.8671624,2.2857115
172,6,Paris,Hôtel Prince Albert Monceau,3.0,Non renseigné,https://www.booking.com/search.html?ss=Hôtel+Prince+Albert+Monceau,48.8867808,2.3137817
173,6,Paris,Hôtel Saint-Cyr Étoile,3.0,Non renseigné,https://www.booking.com/search.html?ss=Hôtel+Saint-Cyr+Étoile,48.8804472,2.2855736
174,6,Paris,Hôtel Bonséjour,3.0,Rue Burq,https://www.booking.com/search.html?ss=Hôtel+Bonséjour,48.8861896,2.3361789
175,6,Paris,Hôtel des Arts,3.0,Non renseigné,https://www.booking.com/search.html?ss=Hôtel+des+Arts,48.8839442,2.3263665
176,6,Paris,Hôtel Eden Montmartre,3.0,Rue Ordener,https://www.booking.com/search.html?ss=Hôtel+Eden+Montmartre,48.8928524,2.3428035
177,6,Paris,Paris Hôtel,3.0,Non renseigné,https://www.booking.com/search.html?ss=Paris+Hôtel,48.8801463,2.3372618
178,6,Paris,Terrass'' Hôtel,4.0,Rue Joseph de Maistre,https://www.booking.com/search.html?ss=Terrass''+Hôtel,48.8865811,2.333045
179,6,Paris,Hôtel Bonne Nouvelle,3.0,Rue Beauregard,https://www.booking.com/search.html?ss=Hôtel+Bonne+Nouvelle,48.8693546,2.3495274
180,6,Paris,Tiquetonne Hôtel,1.0,Non renseigné,https://www.booking.com/search.html?ss=Tiquetonne+Hôtel,48.8644952,2.3495828
181,6,Paris,Hôtel Paris Opéra,3.0,Non renseigné,https://www.booking.com/search.html?ss=Hôtel+Paris+Opéra,48.8713219,2.3426051
182,6,Paris,Hôtel Victoires Opéra,4.0,Rue Montorgueil,https://www.booking.com/search.html?ss=Hôtel+Victoires+Opéra,48.8649114,2.3469659
183,6,Paris,Grand Hôtel des Arts et Métiers,3.0,Non renseigné,https://www.booking.com/search.html?ss=Grand+Hôtel+des+Arts+et+Métiers,48.866283,2.3573686
184,6,Paris,Hôtel Royal Bel Air,2.0,Non renseigné,https://www.booking.com/search.html?ss=Hôtel+Royal+Bel+Air,48.8460247,2.3981137
185,6,Paris,Carladez Cambronne,3.0,Non renseigné,https://www.booking.com/search.html?ss=Carladez+Cambronne,48.8421016,2.3032187
186,6,Paris,Ibis Paris Tour Eiffel Cambronne 15ème,3.0,Rue Cambronne,https://www.booking.com/search.html?ss=Ibis+Paris+Tour+Eiffel+Cambronne+15ème,48.8471379,2.3013512
187,6,Paris,Novotel Paris Gare Montparnasse,3.0,Rue du Cotentin,https://www.booking.com/search.html?ss=Novotel+Paris+Gare+Montparnasse,48.8384924,2.3151043
188,6,Paris,Hôtel Moderne,3.0,Non renseigné,https://www.booking.com/search.html?ss=Hôtel+Moderne,48.8261138,2.2781477
189,6,Paris,HotelF1 Porte de Montmartre,3.0,Non renseigné,https://www.booking.com/search.html?ss=HotelF1+Porte+de+Montmartre,48.9011416,2.3325958
190,6,Paris,Hôtel Le Littré,3.0,Non renseigné,https://www.booking.com/search.html?ss=Hôtel+Le+Littré,48.8454273,2.3241304
191,6,Paris,Hôtel Ermitage,3.0,Non renseigné,https://www.booking.com/search.html?ss=Hôtel+Ermitage,48.8717563,2.3927092
192,6,Paris,Hôtel Balzac,3.0,Non renseigné,https://www.booking.com/search.html?ss=Hôtel+Balzac,48.8733283,2.3004615
193,6,Paris,Hôtel Acacias Etoile,3.0,Non renseigné,https://www.booking.com/search.html?ss=Hôtel+Acacias+Etoile,48.8766342,2.2907798
194,6,Paris,InterContinental Paris le Grand,3.0,Non renseigné,https://www.booking.com/search.html?ss=InterContinental+Paris+le+Grand,48.8707271,2.3303365
195,6,Paris,Edgar & Achille,3.0,Rue Sainte-Foy,https://www.booking.com/search.html?ss=Edgar+&+Achille,48.8684839,2.3499184
196,6,Paris,Hôtel Sofitel Le Faubourg,3.0,Non renseigné,https://www.booking.com/search.html?ss=Hôtel+Sofitel+Le+Faubourg,48.8684048,2.3213802
197,6,Paris,"Maison Astor Paris, Curio Collection by Hilton",4.0,Non renseigné,"https://www.booking.com/search.html?ss=Maison+Astor+Paris,+Curio+Collection+by+Hilton",48.8728474,2.3193054
198,6,Paris,Crowne Plaza Paris Republique Hotel,3.0,Place de la République,https://www.booking.com/search.html?ss=Crowne+Plaza+Paris+Republique+Hotel,48.8672946,2.3655334
199,6,Paris,Hôtel Valadon,2.0,Non renseigné,https://www.booking.com/search.html?ss=Hôtel+Valadon,48.8567926,2.3055714
200,6,Paris,Novotel Paris Est,3.0,Avenue de la République,https://www.booking.com/search.html?ss=Novotel+Paris+Est,48.8633105,2.4154593
201,6,Paris,Bootcamp,3.0,Non renseigné,https://www.booking.com/search.html?ss=Bootcamp,48.8233916,2.2730589
202,6,Paris,Hôtel États-Unis Opéra,3.0,Non renseigné,https://www.booking.com/search.html?ss=Hôtel+États-Unis+Opéra,48.8690342,2.3336525
203,6,Paris,Hôtel L'Horset Opéra,3.0,Non renseigné,https://www.booking.com/search.html?ss=Hôtel+L'Horset+Opéra,48.8690718,2.3338065
204,6,Paris,Hôtel Val Girard,3.0,Non renseigné,https://www.booking.com/search.html?ss=Hôtel+Val+Girard,48.8407863,2.299289
205,6,Paris,Alizé Grenelle,3.0,Non renseigné,https://www.booking.com/search.html?ss=Alizé+Grenelle,48.8467419,2.2878241
206,6,Paris,Beaugrenelle Saint-Charles,3.0,Non renseigné,https://www.booking.com/search.html?ss=Beaugrenelle+Saint-Charles,48.8472201,2.2858925
207,6,Paris,Hôtel Scribe,5.0,Non renseigné,https://www.booking.com/search.html?ss=Hôtel+Scribe,48.8706574,2.3296691
208,6,Paris,Mercure Paris Montparnasse Pasteur,4.0,Rue Gager-Gabillot,https://www.booking.com/search.html?ss=Mercure+Paris+Montparnasse+Pasteur,48.837696,2.3062844
209,6,Paris,Hôtel de Suez,3.0,Non renseigné,https://www.booking.com/search.html?ss=Hôtel+de+Suez,48.8497957,2.3426515
210,6,Paris,Hôtel de la place des Alpes,2.0,Non renseigné,https://www.booking.com/search.html?ss=Hôtel+de+la+place+des+Alpes,48.8321555,2.3588862
211,6,Paris,Chinagora,3.0,Non renseigné,https://www.booking.com/search.html?ss=Chinagora,48.8153394,2.4116258
212,6,Paris,Mademoiselle,4.0,Non renseigné,https://www.booking.com/search.html?ss=Mademoiselle,48.8772727,2.3543165
213,6,Paris,Hôtel du Prince Eugène,3.0,Boulevard Voltaire,https://www.booking.com/search.html?ss=Hôtel+du+Prince+Eugène,48.8506769,2.3924817
214,6,Paris,Hôtel Particulier Montmartre,3.0,Avenue Junot,https://www.booking.com/search.html?ss=Hôtel+Particulier+Montmartre,48.888158,2.3355125
215,6,Paris,Grand Hôtel Doré,3.0,Non renseigné,https://www.booking.com/search.html?ss=Grand+Hôtel+Doré,48.839153,2.39747
216,6,Paris,Sublim,4.0,Non renseigné,https://www.booking.com/search.html?ss=Sublim,48.845234,2.3101111
217,6,Paris,District République,2.0,Non renseigné,https://www.booking.com/search.html?ss=District+République,48.8707814,2.3598503
218,6,Paris,Relais du Pré,3.0,Non renseigné,https://www.booking.com/search.html?ss=Relais+du+Pré,48.8780025,2.3475708
219,6,Paris,Hôtel du Pré,3.0,Non renseigné,https://www.booking.com/search.html?ss=Hôtel+du+Pré,48.8775316,2.3471837
220,6,Paris,Résidence du Pré,3.0,Non renseigné,https://www.booking.com/search.html?ss=Résidence+du+Pré,48.8784021,2.3475786
221,6,Paris,Au Manoir Saint-Germain des Prés,4.0,Non renseigné,https://www.booking.com/search.html?ss=Au+Manoir+Saint-Germain+des+Prés,48.8537719,2.3323137
222,6,Paris,Adagio Paris Montmartre,4.0,Non renseigné,https://www.booking.com/search.html?ss=Adagio+Paris+Montmartre,48.8831159,2.342548
223,6,Paris,Kube Hotel,4.0,Passage Ruelle,https://www.booking.com/search.html?ss=Kube+Hotel,48.8866042,2.3588436
224,6,Paris,Au Bœuf Couronné - Hôtel & Restaurant,3.0,Avenue Jean Jaurès,https://www.booking.com/search.html?ss=Au+Bœuf+Couronné+-+Hôtel+&+Restaurant,48.8880087,2.3909356
225,6,Paris,Hôtel Saint-Charles,3.0,Non renseigné,https://www.booking.com/search.html?ss=Hôtel+Saint-Charles,48.82713,2.3482326
226,6,Paris,ibis Styles Paris Maine Montparnasse,2.0,Rue Hippolyte Maindron,https://www.booking.com/search.html?ss=ibis+Styles+Paris+Maine+Montparnasse,48.8316922,2.3218269
227,6,Paris,Citadines Place d'Italie,3.0,Place d'Italie,https://www.booking.com/search.html?ss=Citadines+Place+d'Italie,48.8305203,2.3549865
228,6,Paris,Mercure Paris Suresnes Longchamp,3.0,Avenue Charles de Gaulle,https://www.booking.com/search.html?ss=Mercure+Paris+Suresnes+Longchamp,48.8707253,2.2248262
229,6,Paris,Ibis Budget,3.0,Avenue Léon Gaumont,https://www.booking.com/search.html?ss=Ibis+Budget,48.8493663,2.4164765
230,6,Paris,Hôtel de la Porte Dorée,3.0,Non renseigné,https://www.booking.com/search.html?ss=Hôtel+de+la+Porte+Dorée,48.8360061,2.4060195
231,6,Paris,L'Interlude,3.0,Avenue Daumesnil,https://www.booking.com/search.html?ss=L'Interlude,48.8363817,2.4036733
232,6,Paris,Ibis Budget Porte de Bagnolet,3.0,Non renseigné,https://www.booking.com/search.html?ss=Ibis+Budget+Porte+de+Bagnolet,48.8665538,2.4164224
233,6,Paris,Ibis Porte de Bagnolet,3.0,Non renseigné,https://www.booking.com/search.html?ss=Ibis+Porte+de+Bagnolet,48.8665731,2.4168062
234,6,Paris,Campanile,3.0,Non renseigné,https://www.booking.com/search.html?ss=Campanile,48.8351933,2.3876342
235,6,Paris,Novotel Paris Bercy,3.0,Non renseigné,https://www.booking.com/search.html?ss=Novotel+Paris+Bercy,48.8388012,2.3804572
236,6,Paris,Hôtel Ibis Styles Paris-Bercy,3.0,Rue de Bercy,https://www.booking.com/search.html?ss=Hôtel+Ibis+Styles+Paris-Bercy,48.8384022,2.3811331
237,6,Paris,Hôtel Plaza Élysées,3.0,Non renseigné,https://www.booking.com/search.html?ss=Hôtel+Plaza+Élysées,48.874647,2.3057595
238,6,Paris,Hôtel Altona,2.0,Non renseigné,https://www.booking.com/search.html?ss=Hôtel+Altona,48.8824615,2.3498469
239,6,Paris,Adagio Access,3.0,Non renseigné,https://www.booking.com/search.html?ss=Adagio+Access,48.8149385,2.4187394
240,6,Paris,Hôtel Cabane,3.0,Non renseigné,https://www.booking.com/search.html?ss=Hôtel+Cabane,48.8337574,2.3175871
241,6,Paris,Best western - hôtel Saint louis,3.0,Non renseigné,https://www.booking.com/search.html?ss=Best+western+-+hôtel+Saint+louis,48.8452617,2.4352555
242,6,Paris,Wattignies Hôtel,3.0,Non renseigné,https://www.booking.com/search.html?ss=Wattignies+Hôtel,48.8367389,2.39232
243,6,Paris,Hôtel Allegro,3.0,Non renseigné,https://www.booking.com/search.html?ss=Hôtel+Allegro,48.8430418,2.4051424
244,6,Paris,Novotel Paris La Défense,3.0,Boulevard de Neuilly,https://www.booking.com/search.html?ss=Novotel+Paris+La+Défense,48.887909,2.2526741
245,6,Paris,Terminus - Lyon,3.0,Non renseigné,https://www.booking.com/search.html?ss=Terminus+-+Lyon,48.8458297,2.3717725
246,6,Paris,Viator,3.0,Non renseigné,https://www.booking.com/search.html?ss=Viator,48.8468441,2.3725504
247,6,Paris,Maison Traversière,3.0,Non renseigné,https://www.booking.com/search.html?ss=Maison+Traversière,48.8472258,2.372644
248,6,Paris,Holiday Inn Paris - Gare de Lyon Bastille,4.0,rue de Lyon,https://www.booking.com/search.html?ss=Holiday+Inn+Paris+-+Gare+de+Lyon+Bastille,48.8467471,2.3717077
249,6,Paris,Hôtel Le Saint-Hubert,3.0,Non renseigné,https://www.booking.com/search.html?ss=Hôtel+Le+Saint-Hubert,48.8470278,2.3723255
250,6,Paris,"Hôtel Camille Paris Gare de Lyon, Tapestry Collection by Hilton",3.0,Rue de Lyon,"https://www.booking.com/search.html?ss=Hôtel+Camille+Paris+Gare+de+Lyon,+Tapestry+Collection+by+Hilton",48.8462447,2.3719493
251,6,Paris,Mercure Paris Gare de Lyon Opéra,4.0,Rue Parrot,https://www.booking.com/search.html?ss=Mercure+Paris+Gare+de+Lyon+Opéra,48.8468976,2.372834
252,6,Paris,Hôtel Mercure Paris Gare de Lyon TGV,3.0,Non renseigné,https://www.booking.com/search.html?ss=Hôtel+Mercure+Paris+Gare+de+Lyon+TGV,48.8444405,2.3728366
253,6,Paris,Prince Albert,3.0,Non renseigné,https://www.booking.com/search.html?ss=Prince+Albert,48.8460864,2.3771827
254,6,Paris,ibis Styles Paris Gare de Lyon TGV,3.0,Boulevard Diderot,https://www.booking.com/search.html?ss=ibis+Styles+Paris+Gare+de+Lyon+TGV,48.8458926,2.3755308
255,6,Paris,Hôtel de Marseille,3.0,Non renseigné,https://www.booking.com/search.html?ss=Hôtel+de+Marseille,48.8474633,2.3712106
256,6,Paris,Riesner,4.0,Non renseigné,https://www.booking.com/search.html?ss=Riesner,48.8473704,2.3710629
257,6,Paris,Nièvre Hôtel,3.0,Non renseigné,https://www.booking.com/search.html?ss=Nièvre+Hôtel,48.8472924,2.3712576
258,6,Paris,Modern’s,3.0,Non renseigné,https://www.booking.com/search.html?ss=Modern’s,48.847093,2.3706217
259,6,Paris,Bel Oranger,3.0,Non renseigné,https://www.booking.com/search.html?ss=Bel+Oranger,48.847034,2.3705351
260,6,Paris,Hôtel de l'Aveyron,3.0,Non renseigné,https://www.booking.com/search.html?ss=Hôtel+de+l'Aveyron,48.8468671,2.3702623
261,6,Paris,TimHotel Gare de Lyon,3.0,Rue d'Austerlitz,https://www.booking.com/search.html?ss=TimHotel+Gare+de+Lyon,48.8468041,2.370162
262,6,Paris,Le Myosotis,3.0,Non renseigné,https://www.booking.com/search.html?ss=Le+Myosotis,48.8267472,2.3324515
263,6,Paris,Courtyard by Marriott,3.0,Non renseigné,https://www.booking.com/search.html?ss=Courtyard+by+Marriott,48.9222144,2.343079
264,6,Paris,Hôtel Mignon,3.0,Non renseigné,https://www.booking.com/search.html?ss=Hôtel+Mignon,48.8470895,2.3710844
265,6,Paris,Alcyon,3.0,Non renseigné,https://www.booking.com/search.html?ss=Alcyon,48.8499435,2.3756832
266,6,Paris,Hôtel Prince,3.0,Non renseigné,https://www.booking.com/search.html?ss=Hôtel+Prince,48.8548916,2.3050685
267,6,Paris,Comfort Hotel Paris Porte d'Ivry,3.0,Rue René Villars,https://www.booking.com/search.html?ss=Comfort+Hotel+Paris+Porte+d'Ivry,48.8198085,2.3761395
268,6,Paris,Hôtel Pont Royal,5.0,Non renseigné,https://www.booking.com/search.html?ss=Hôtel+Pont+Royal,48.8565619,2.3273421
269,6,Paris,Hôtel Ibis Paris 17 Clichy-Batignolles,3.0,Rue Bernard Buffet,https://www.booking.com/search.html?ss=Hôtel+Ibis+Paris+17+Clichy-Batignolles,48.8921778,2.314997
270,6,Paris,Hôtel Marriott,3.0,Avenue des Champs-Élysées,https://www.booking.com/search.html?ss=Hôtel+Marriott,48.8710747,2.3050358
271,6,Paris,Le Modern',3.0,Rue Béranger,https://www.booking.com/search.html?ss=Le+Modern',48.8958094,2.1958858
272,6,Paris,Hôtel Coypel,3.0,Non renseigné,https://www.booking.com/search.html?ss=Hôtel+Coypel,48.8333144,2.3564802
273,6,Paris,Hôtel des Écrivains,3.0,Non renseigné,https://www.booking.com/search.html?ss=Hôtel+des+Écrivains,48.8332931,2.3560025
274,6,Paris,Convention Montparnasse,3.0,Non renseigné,https://www.booking.com/search.html?ss=Convention+Montparnasse,48.8371967,2.2971923
275,6,Paris,L'Acacia,3.0,Non renseigné,https://www.booking.com/search.html?ss=L'Acacia,48.8866553,2.2087546
276,6,Paris,hotelF1 Paris Porte de Châtillon,3.0,Avenue de la Porte de Châtillon,https://www.booking.com/search.html?ss=hotelF1+Paris+Porte+de+Châtillon,48.822557,2.3165999
277,6,Paris,Hôtel Luxor,1.0,Non renseigné,https://www.booking.com/search.html?ss=Hôtel+Luxor,48.8288534,2.2822756
278,6,Paris,Rue Bertin Poirée,3.0,Non renseigné,https://www.booking.com/search.html?ss=Rue+Bertin+Poirée,48.8593629,2.3451569
279,6,Paris,Hôtel Victoria Châtelet,3.0,Avenue Victoria,https://www.booking.com/search.html?ss=Hôtel+Victoria+Châtelet,48.8578252,2.3467061
280,6,Paris,Hôtel Britannique,3.0,Non renseigné,https://www.booking.com/search.html?ss=Hôtel+Britannique,48.8582914,2.3464129
281,6,Paris,Hôtel des Olympiades,1.0,Square de Clignancourt,https://www.booking.com/search.html?ss=Hôtel+des+Olympiades,48.8936639,2.3472231
282,6,Paris,Hôtel Regina,3.0,Place des Pyramides,https://www.booking.com/search.html?ss=Hôtel+Regina,48.8637204,2.3325149
283,6,Paris,Hôtel Louvre Piémont,4.0,Non renseigné,https://www.booking.com/search.html?ss=Hôtel+Louvre+Piémont,48.8648474,2.3365286
284,6,Paris,Hôtel Normandy,3.0,Non renseigné,https://www.booking.com/search.html?ss=Hôtel+Normandy,48.8640595,2.3341241
285,6,Paris,Louvre Saint-Anne,3.0,Non renseigné,https://www.booking.com/search.html?ss=Louvre+Saint-Anne,48.8664704,2.3357313
286,6,Paris,Opéra Maintenon,2.0,Non renseigné,https://www.booking.com/search.html?ss=Opéra+Maintenon,48.8667958,2.3359208
287,6,Paris,Hôtel de l'Exposition - Tour Eiffel,3.0,Non renseigné,https://www.booking.com/search.html?ss=Hôtel+de+l'Exposition+-+Tour+Eiffel,48.8487988,2.2881308
288,6,Paris,Londres Saint-Honoré,3.0,Non renseigné,https://www.booking.com/search.html?ss=Londres+Saint-Honoré,48.865096,2.3319535
289,6,Paris,Hôtel Brighton,3.0,Non renseigné,https://www.booking.com/search.html?ss=Hôtel+Brighton,48.864871,2.3290782
290,6,Paris,Meliã Vendôme,4.0,Non renseigné,https://www.booking.com/search.html?ss=Meliã+Vendôme,48.8667891,2.3258372
291,6,Paris,Hôtel Opera Richepanse,3.0,Non renseigné,https://www.booking.com/search.html?ss=Hôtel+Opera+Richepanse,48.8686996,2.3252245
292,6,Paris,Hôtel d'Aubusson,5.0,Non renseigné,https://www.booking.com/search.html?ss=Hôtel+d'Aubusson,48.8547614,2.3395044
293,6,Paris,Ivry Bar,3.0,Non renseigné,https://www.booking.com/search.html?ss=Ivry+Bar,48.8105676,2.3884401
294,6,Paris,Hôtel France d'Antin,3.0,Non renseigné,https://www.booking.com/search.html?ss=Hôtel+France+d'Antin,48.8692604,2.3339332
295,6,Paris,Hollmann in Paris,3.0,Quai d'Anjou,https://www.booking.com/search.html?ss=Hollmann+in+Paris,48.8512172,2.3598878
296,6,Paris,Le Gabriel,3.0,Boulevard des Frères Voisin,https://www.booking.com/search.html?ss=Le+Gabriel,48.8277692,2.273363
297,6,Paris,Folkestone Opéra,3.0,Rue de Castellane,https://www.booking.com/search.html?ss=Folkestone+Opéra,48.8722043,2.3250526
298,6,Paris,Sydney Opéra,3.0,Non renseigné,https://www.booking.com/search.html?ss=Sydney+Opéra,48.8734124,2.3240936
299,6,Paris,Prince de Galles,5.0,33 Avenue George V,https://www.booking.com/search.html?ss=Prince+de+Galles,48.8691274,2.3007665
300,6,Paris,Hôtel Jeanne d'Arc,3.0,Non renseigné,https://www.booking.com/search.html?ss=Hôtel+Jeanne+d'Arc,48.8555439,2.3632131
301,6,Paris,Hôtel Turenne,3.0,Non renseigné,https://www.booking.com/search.html?ss=Hôtel+Turenne,48.8550844,2.3634743
302,6,Paris,Hôtel Saint-Louis Marais,3.0,Non renseigné,https://www.booking.com/search.html?ss=Hôtel+Saint-Louis+Marais,48.8523982,2.3636825
303,6,Paris,Les Bains Paris,3.0,Non renseigné,https://www.booking.com/search.html?ss=Les+Bains+Paris,48.8639041,2.3519964
304,6,Paris,Hôtel Marais Grands Boulevards,3.0,Boulevard de Sébastopol,https://www.booking.com/search.html?ss=Hôtel+Marais+Grands+Boulevards,48.86876,2.3541629
305,6,Paris,Hôtel du Plat d'Étain,3.0,Non renseigné,https://www.booking.com/search.html?ss=Hôtel+du+Plat+d'Étain,48.8684818,2.3557047
306,6,Paris,Hôtel Paix République,3.0,Non renseigné,https://www.booking.com/search.html?ss=Hôtel+Paix+République,48.8682453,2.3616905
307,6,Paris,Miramar,3.0,Non renseigné,https://www.booking.com/search.html?ss=Miramar,48.8422964,2.3202462
308,6,Paris,Timhotel Montparnasse,3.0,Non renseigné,https://www.booking.com/search.html?ss=Timhotel+Montparnasse,48.8430653,2.3214055
309,6,Paris,Printania,3.0,Non renseigné,https://www.booking.com/search.html?ss=Printania,48.8644007,2.3662811
310,6,Paris,Hôtel la Résidence du Roy,3.0,Non renseigné,https://www.booking.com/search.html?ss=Hôtel+la+Résidence+du+Roy,48.8657827,2.3089125
311,6,Paris,Les Rives Oceanik,3.0,Non renseigné,https://www.booking.com/search.html?ss=Les+Rives+Oceanik,48.8442494,2.3422817
312,6,Paris,Résidence Chlorophylle,3.0,Non renseigné,https://www.booking.com/search.html?ss=Résidence+Chlorophylle,48.8063844,2.3261848
313,6,Paris,Campanile Paris Sud,3.0,Non renseigné,https://www.booking.com/search.html?ss=Campanile+Paris+Sud,48.8053144,2.325767
314,6,Paris,Hôtel Saint-Paul Rive Gauche,4.0,Non renseigné,https://www.booking.com/search.html?ss=Hôtel+Saint-Paul+Rive+Gauche,48.8496648,2.3402192
315,6,Paris,Hipotel Paris Voltaire Bastille,3.0,Boulevard Voltaire,https://www.booking.com/search.html?ss=Hipotel+Paris+Voltaire+Bastille,48.8573223,2.3805565
316,6,Paris,Hôtel Taylor,3.0,Rue Taylor,https://www.booking.com/search.html?ss=Hôtel+Taylor,48.8695299,2.3591713
317,6,Paris,Hôtel Boissière,2.0,Non renseigné,https://www.booking.com/search.html?ss=Hôtel+Boissière,48.8921088,2.2932553
318,6,Paris,One by the Five,3.0,Non renseigné,https://www.booking.com/search.html?ss=One+by+the+Five,48.8378056,2.3463754
319,6,Paris,Voco Porte de Clichy,3.0,Non renseigné,https://www.booking.com/search.html?ss=Voco+Porte+de+Clichy,48.8977239,2.3105703
320,6,Paris,ibis Paris Porte de Clichy Centre,3.0,Boulevard Victor Hugo,https://www.booking.com/search.html?ss=ibis+Paris+Porte+de+Clichy+Centre,48.8971582,2.3097355
321,6,Paris,Holiday Inn : Gare de L'est,4.0,Non renseigné,https://www.booking.com/search.html?ss=Holiday+Inn+:+Gare+de+L'est,48.8758629,2.358998
322,6,Paris,Artus Hotel,4.0,Rue de Buci,https://www.booking.com/search.html?ss=Artus+Hotel,48.8534652,2.3360798
323,6,Paris,Hôtel Beauchamps,3.0,Non renseigné,https://www.booking.com/search.html?ss=Hôtel+Beauchamps,48.870887,2.3092693
324,6,Paris,Hôtel du Rond-Point des Champs-Élysées,4.0,Non renseigné,https://www.booking.com/search.html?ss=Hôtel+du+Rond-Point+des+Champs-Élysées,48.8704088,2.3106942
325,6,Paris,Hôtel Mathis Élysées,3.0,Non renseigné,https://www.booking.com/search.html?ss=Hôtel+Mathis+Élysées,48.8700445,2.3113231
326,6,Paris,Le 123 Elysées,3.0,Non renseigné,https://www.booking.com/search.html?ss=Le+123+Elysées,48.8731008,2.3097181
327,6,Paris,Hôtel Élysées 8,3.0,Non renseigné,https://www.booking.com/search.html?ss=Hôtel+Élysées+8,48.8730746,2.3180911
328,6,Paris,Royal Madeleine,3.0,Non renseigné,https://www.booking.com/search.html?ss=Royal+Madeleine,48.8729256,2.3237568
329,6,Paris,Hôtel Opal,3.0,Non renseigné,https://www.booking.com/search.html?ss=Hôtel+Opal,48.8722936,2.3258193
330,6,Paris,Le 12 Paris,3.0,Non renseigné,https://www.booking.com/search.html?ss=Le+12+Paris,48.877155,2.3220451
331,6,Paris,Vintage Hostel Gare du Nord,3.0,Rue de Dunkerque,https://www.booking.com/search.html?ss=Vintage+Hostel+Gare+du+Nord,48.8817197,2.3472812
332,6,Paris,Hôtel Berne Opéra,3.0,Non renseigné,https://www.booking.com/search.html?ss=Hôtel+Berne+Opéra,48.8818743,2.3221457
333,6,Paris,Hôtel Exe Paris Centre,3.0,Non renseigné,https://www.booking.com/search.html?ss=Hôtel+Exe+Paris+Centre,48.8784319,2.3268251
334,6,Paris,Grand Hôtel du Havre,3.0,Non renseigné,https://www.booking.com/search.html?ss=Grand+Hôtel+du+Havre,48.8765921,2.3270551
335,6,Paris,Hôtel Phileas,4.0,Non renseigné,https://www.booking.com/search.html?ss=Hôtel+Phileas,48.876879,2.3270689
336,6,Paris,Hôtel de Dieppe,2.0,Non renseigné,https://www.booking.com/search.html?ss=Hôtel+de+Dieppe,48.8767937,2.3270652
337,6,Paris,Hôtel Alizé Montmartre,3.0,Non renseigné,https://www.booking.com/search.html?ss=Hôtel+Alizé+Montmartre,48.8837078,2.3286418
338,6,Paris,Hilton Paris La Defense,4.0,Place de la Défense,https://www.booking.com/search.html?ss=Hilton+Paris+La+Defense,48.8928428,2.2382885
339,6,Paris,Pley Hotel,4.0,Non renseigné,https://www.booking.com/search.html?ss=Pley+Hotel,48.8756281,2.3041375
340,6,Paris,Le Friedland,4.0,Non renseigné,https://www.booking.com/search.html?ss=Le+Friedland,48.8750868,2.304859
341,6,Paris,Champs-Élysées Plaza,4.0,Non renseigné,https://www.booking.com/search.html?ss=Champs-Élysées+Plaza,48.8737055,2.3062317
342,6,Paris,Hôtel California,4.0,Non renseigné,https://www.booking.com/search.html?ss=Hôtel+California,48.8726755,2.304947
343,6,Paris,Hôtel du Colisée,3.0,Non renseigné,https://www.booking.com/search.html?ss=Hôtel+du+Colisée,48.8704404,2.307747
344,6,Paris,Château des Fleurs,5.0,Rue Vernet,https://www.booking.com/search.html?ss=Château+des+Fleurs,48.8717742,2.2984126
345,6,Paris,Hôtel de la Trémoille,4.0,Non renseigné,https://www.booking.com/search.html?ss=Hôtel+de+la+Trémoille,48.8668308,2.3028826
346,6,Paris,Hôtel Élysées Régencia,4.0,Non renseigné,https://www.booking.com/search.html?ss=Hôtel+Élysées+Régencia,48.8686655,2.2984695
347,6,Paris,Hôtel La Bourdonnais,4.0,Avenue de la Bourdonnais,https://www.booking.com/search.html?ss=Hôtel+La+Bourdonnais,48.8549543,2.3045853
348,6,Paris,Hôtel Le Walt,4.0,Non renseigné,https://www.booking.com/search.html?ss=Hôtel+Le+Walt,48.8547458,2.3065559
349,6,Paris,Hotel Norman Paris,3.0,Rue Balzac,https://www.booking.com/search.html?ss=Hotel+Norman+Paris,48.8736939,2.3003734
350,6,Paris,Hôtel Lord Byron,3.0,Non renseigné,https://www.booking.com/search.html?ss=Hôtel+Lord+Byron,48.8731309,2.3023945
351,6,Paris,Hôtel Ekta Champs Elysées,3.0,Non renseigné,https://www.booking.com/search.html?ss=Hôtel+Ekta+Champs+Elysées,48.8712543,2.298155
352,6,Paris,Pershing Hall,5.0,Rue Pierre Charron,https://www.booking.com/search.html?ss=Pershing+Hall,48.8690928,2.3022321
353,6,Paris,Au Soleil Levant,3.0,Non renseigné,https://www.booking.com/search.html?ss=Au+Soleil+Levant,48.8153005,2.3754495
354,6,Paris,Hôtel Mercure Paris 19 Philharmonie La Villette,4.0,Avenue Jean Jaurès,https://www.booking.com/search.html?ss=Hôtel+Mercure+Paris+19+Philharmonie+La+Villette,48.8888774,2.3943052
355,6,Paris,Holiday Inn Express : Hôtel Paris-Canal De La Villette,4.0,Quai de la Seine,https://www.booking.com/search.html?ss=Holiday+Inn+Express+:+Hôtel+Paris-Canal+De+La+Villette,48.8884053,2.378521
356,6,Paris,Hôtel Acanthe,3.0,Rond-Point Rhin et Danube,https://www.booking.com/search.html?ss=Hôtel+Acanthe,48.840351,2.2282676
357,6,Paris,Les Dames du Panthéon,4.0,Non renseigné,https://www.booking.com/search.html?ss=Les+Dames+du+Panthéon,48.8457239,2.3448389
358,6,Paris,Hôtel de l'Aqueduc,3.0,Non renseigné,https://www.booking.com/search.html?ss=Hôtel+de+l'Aqueduc,48.8813609,2.3620199
359,6,Paris,Hôtel Mercure Paris Gare du Nord La Fayette,3.0,Non renseigné,https://www.booking.com/search.html?ss=Hôtel+Mercure+Paris+Gare+du+Nord+La+Fayette,48.880103,2.3594914
360,6,Paris,Ibis Styles,3.0,Non renseigné,https://www.booking.com/search.html?ss=Ibis+Styles,48.8335201,2.2443014
361,6,Paris,Hôtel Pierre Dupont,3.0,Non renseigné,https://www.booking.com/search.html?ss=Hôtel+Pierre+Dupont,48.8788369,2.3643037
362,6,Paris,Hôtel Habituel,4.0,Non renseigné,https://www.booking.com/search.html?ss=Hôtel+Habituel,48.8797564,2.3574795
363,6,Paris,Paradiso,3.0,Non renseigné,https://www.booking.com/search.html?ss=Paradiso,48.8482637,2.3932794
364,6,Paris,Excelsior Hôtel Varlin,3.0,Non renseigné,https://www.booking.com/search.html?ss=Excelsior+Hôtel+Varlin,48.8789596,2.3632481
365,6,Paris,Hôtel du Canal,3.0,Non renseigné,https://www.booking.com/search.html?ss=Hôtel+du+Canal,48.8954958,2.4002072
366,6,Paris,Au royal Pantin,3.0,Non renseigné,https://www.booking.com/search.html?ss=Au+royal+Pantin,48.8951585,2.3996139
367,6,Paris,Grand Hôtel de l'Univers-Nord,3.0,Non renseigné,https://www.booking.com/search.html?ss=Grand+Hôtel+de+l'Univers-Nord,48.8830707,2.3660649
368,6,Paris,Hôtel Pullman Paris Bercy,3.0,Non renseigné,https://www.booking.com/search.html?ss=Hôtel+Pullman+Paris+Bercy,48.8318013,2.3866661
369,6,Paris,Hôtel George,3.0,Non renseigné,https://www.booking.com/search.html?ss=Hôtel+George,48.8795548,2.3363831
370,6,Paris,Appart'City,4.0,Avenue de France,https://www.booking.com/search.html?ss=Appart'City,48.8278735,2.3796577
371,6,Paris,Bourgogne et Montana Hôtel,4.0,Rue de Bourgogne,https://www.booking.com/search.html?ss=Bourgogne+et+Montana+Hôtel,48.860154,2.3183179
372,6,Paris,Hôtel de Varenne,3.0,Rue de Bourgogne,https://www.booking.com/search.html?ss=Hôtel+de+Varenne,48.8569907,2.3172527
373,6,Paris,Hôtel des Trois Gares,3.0,Non renseigné,https://www.booking.com/search.html?ss=Hôtel+des+Trois+Gares,48.8489133,2.3684099
374,6,Paris,Monge,4.0,Non renseigné,https://www.booking.com/search.html?ss=Monge,48.8448031,2.3524587
375,6,Paris,Hôtel Américain,2.0,Non renseigné,https://www.booking.com/search.html?ss=Hôtel+Américain,48.8647693,2.3649321
376,6,Paris,Hôtel Raphael,5.0,Non renseigné,https://www.booking.com/search.html?ss=Hôtel+Raphael,48.8713772,2.2935928
377,6,Paris,Hôtel Baltimore,4.0,Non renseigné,https://www.booking.com/search.html?ss=Hôtel+Baltimore,48.8664199,2.289244
378,6,Paris,Hôtel Pastel,2.0,Non renseigné,https://www.booking.com/search.html?ss=Hôtel+Pastel,48.868344,2.2891654
379,6,Paris,Villa des ambassadeurs,3.0,Non renseigné,https://www.booking.com/search.html?ss=Villa+des+ambassadeurs,48.8652994,2.2905368
380,6,Paris,Hôtel Victor Hugo,3.0,Non renseigné,https://www.booking.com/search.html?ss=Hôtel+Victor+Hugo,48.8691051,2.2891789
381,6,Paris,La Clef Tour Eiffel,3.0,Non renseigné,https://www.booking.com/search.html?ss=La+Clef+Tour+Eiffel,48.8646266,2.2887076
382,6,Paris,Résidence Impériale,3.0,Non renseigné,https://www.booking.com/search.html?ss=Résidence+Impériale,48.8761867,2.2834356
383,6,Paris,Color Design Hôtel,3.0,Rue de Cîteaux,https://www.booking.com/search.html?ss=Color+Design+Hôtel,48.8494118,2.3809774
384,6,Paris,Voco hôtel,3.0,Non renseigné,https://www.booking.com/search.html?ss=Voco+hôtel,48.8383119,2.3229285
385,6,Paris,The ReMIX Hotel Paris,4.0,Avenue Corentin Cariou,https://www.booking.com/search.html?ss=The+ReMIX+Hotel+Paris,48.8969199,2.385325
386,6,Paris,Ibis styles Hôtels,3.0,Non renseigné,https://www.booking.com/search.html?ss=Ibis+styles+Hôtels,48.7807719,2.3157496
387,6,Paris,Hôtel Gavarni,3.0,Non renseigné,https://www.booking.com/search.html?ss=Hôtel+Gavarni,48.8586659,2.2826833
388,6,Paris,Hôtel Korner,3.0,Non renseigné,https://www.booking.com/search.html?ss=Hôtel+Korner,48.8412408,2.3134332
389,6,Paris,Hôtel Jeff,2.0,Non renseigné,https://www.booking.com/search.html?ss=Hôtel+Jeff,48.8739957,2.3427413
390,6,Paris,Hôtel Résidence Foch,3.0,Non renseigné,https://www.booking.com/search.html?ss=Hôtel+Résidence+Foch,48.874238,2.2811266
391,6,Paris,Séjours & Affaires Aparthotels,2.0,Non renseigné,https://www.booking.com/search.html?ss=Séjours+&+Affaires+Aparthotels,48.8190909,2.3037638
392,6,Paris,Hôtel du Jardin des Plantes,3.0,Non renseigné,https://www.booking.com/search.html?ss=Hôtel+du+Jardin+des+Plantes,48.8439161,2.3546908
393,6,Paris,Hôtel Elysa-Luxembourg,3.0,Non renseigné,https://www.booking.com/search.html?ss=Hôtel+Elysa-Luxembourg,48.8461978,2.3409102
394,6,Paris,Sanana,3.0,Non renseigné,https://www.booking.com/search.html?ss=Sanana,48.8350167,2.2369721
395,6,Paris,Hôtel La Fayette,1.0,Non renseigné,https://www.booking.com/search.html?ss=Hôtel+La+Fayette,48.8810462,2.3642045
396,6,Paris,Queen's Hôtel,3.0,Rue Bastien Lepage,https://www.booking.com/search.html?ss=Queen's+Hôtel,48.848594,2.266177
397,6,Paris,Campanile Paris Ouest,3.0,Rue Carnot,https://www.booking.com/search.html?ss=Campanile+Paris+Ouest,48.8346211,2.2423757
398,6,Paris,Pizza Mido,3.0,Non renseigné,https://www.booking.com/search.html?ss=Pizza+Mido,48.903052,2.2580125
399,6,Paris,Holiday Inn Garden Court : Paris-Auteuil,3.0,Non renseigné,https://www.booking.com/search.html?ss=Holiday+Inn+Garden+Court+:+Paris-Auteuil,48.8379511,2.2585104
400,6,Paris,Novotel Suites,4.0,Non renseigné,https://www.booking.com/search.html?ss=Novotel+Suites,48.9236433,2.362907
401,6,Paris,Hôtel Auguste,3.0,Non renseigné,https://www.booking.com/search.html?ss=Hôtel+Auguste,48.8379036,2.2962662
402,6,Paris,Hôtel Merryl,2.0,Non renseigné,https://www.booking.com/search.html?ss=Hôtel+Merryl,48.885378,2.3605121
403,6,Paris,Hôtel de Bellevue Paris,2.0,Non renseigné,https://www.booking.com/search.html?ss=Hôtel+de+Bellevue+Paris,48.8866633,2.360893
404,6,Paris,Hôtel Le Régent,3.0,Non renseigné,https://www.booking.com/search.html?ss=Hôtel+Le+Régent,48.8538117,2.3386948
405,6,Paris,Ambassadeur,3.0,Rue Legendre,https://www.booking.com/search.html?ss=Ambassadeur,48.8907109,2.3246455
406,6,Paris,ibis Paris Porte D'Italie,2.0,Rue du Val de Marne,https://www.booking.com/search.html?ss=ibis+Paris+Porte+D'Italie,48.8171116,2.3500417
407,6,Paris,Hôtel E.S.T.É,4.0,Non renseigné,https://www.booking.com/search.html?ss=Hôtel+E.S.T.É,48.875747,2.3583351
408,6,Paris,Familia Hôtel,3.0,Rue des Écoles,https://www.booking.com/search.html?ss=Familia+Hôtel,48.8476583,2.3515918
409,6,Paris,Hôtel Minerve,3.0,Non renseigné,https://www.booking.com/search.html?ss=Hôtel+Minerve,48.8477032,2.3514397
410,6,Paris,Hôtel Douglas,3.0,Non renseigné,https://www.booking.com/search.html?ss=Hôtel+Douglas,48.8824159,2.2342025
411,6,Paris,Hôtel des Grands Hommes,3.0,Non renseigné,https://www.booking.com/search.html?ss=Hôtel+des+Grands+Hommes,48.8456877,2.3450098
412,6,Paris,Hôtel Eber Mars,3.0,Avenue de la Bourdonnais,https://www.booking.com/search.html?ss=Hôtel+Eber+Mars,48.8547808,2.3048556
413,6,Paris,Eiffel Kennedy,3.0,Rue de Boulainvilliers,https://www.booking.com/search.html?ss=Eiffel+Kennedy,48.8530038,2.2759292
414,6,Paris,Hôtel Le Derby Alma,4.0,Avenue Rapp,https://www.booking.com/search.html?ss=Hôtel+Le+Derby+Alma,48.8604399,2.3007825
415,6,Paris,Hôtel Les Théâtres,4.0,Non renseigné,https://www.booking.com/search.html?ss=Hôtel+Les+Théâtres,48.8695661,2.3517456
416,6,Paris,Residhome,3.0,Place de la Renaissance,https://www.booking.com/search.html?ss=Residhome,48.907212,2.261054
417,6,Paris,Best Western Premier Le Swann,4.0,Non renseigné,https://www.booking.com/search.html?ss=Best+Western+Premier+Le+Swann,48.8797757,2.3206849
418,6,Paris,B&b Hôtel,3.0,Boulevard de la Libération,https://www.booking.com/search.html?ss=B&b+Hôtel,48.9219215,2.3432427
419,6,Paris,Hôtel Derby Eiffel,3.0,Avenue Duquesne,https://www.booking.com/search.html?ss=Hôtel+Derby+Eiffel,48.8536395,2.3074534
420,6,Paris,Hôtel de la Plaine,3.0,Non renseigné,https://www.booking.com/search.html?ss=Hôtel+de+la+Plaine,48.915481,2.3560943
421,6,Paris,Hôtel Lodge du Centre,3.0,Non renseigné,https://www.booking.com/search.html?ss=Hôtel+Lodge+du+Centre,48.8733772,2.3438855
422,6,Paris,Hôtel Villa Margaux,3.0,Rue Henry Monnier,https://www.booking.com/search.html?ss=Hôtel+Villa+Margaux,48.8804106,2.3374459
423,6,Paris,Hôtel des Victoires,3.0,Non renseigné,https://www.booking.com/search.html?ss=Hôtel+des+Victoires,48.8650637,2.3417127
424,6,Paris,Hôtel Ronceray,3.0,Passage Jouffroy,https://www.booking.com/search.html?ss=Hôtel+Ronceray,48.8720574,2.3420399
425,6,Paris,Hôtel Acadia,3.0,Rue Geoffroy Marie,https://www.booking.com/search.html?ss=Hôtel+Acadia,48.8732914,2.3437141
426,6,Paris,Victoria,3.0,Cité Bergère,https://www.booking.com/search.html?ss=Victoria,48.8718534,2.3439372
427,6,Paris,Paris Eiffel Cambronne,3.0,Non renseigné,https://www.booking.com/search.html?ss=Paris+Eiffel+Cambronne,48.8479906,2.3005923
428,6,Paris,Hotel Baldi,3.0,Non renseigné,https://www.booking.com/search.html?ss=Hotel+Baldi,48.8465361,2.3054645
429,6,Paris,First Hôtel,3.0,Non renseigné,https://www.booking.com/search.html?ss=First+Hôtel,48.8474966,2.3022867
430,6,Paris,Hôtel Ségur,3.0,Non renseigné,https://www.booking.com/search.html?ss=Hôtel+Ségur,48.846671,2.3049905
431,6,Paris,Bailli de Suffren,3.0,Non renseigné,https://www.booking.com/search.html?ss=Bailli+de+Suffren,48.8469671,2.308033
432,6,Paris,Antin Saint-Georges,3.0,Non renseigné,https://www.booking.com/search.html?ss=Antin+Saint-Georges,48.877944,2.33783
433,6,Paris,Hôtel de Maubeuge,2.0,Non renseigné,https://www.booking.com/search.html?ss=Hôtel+de+Maubeuge,48.8803393,2.3513838
434,6,Paris,Ibis Paris Pont de Suresnes,3.0,Rue des Bourets,https://www.booking.com/search.html?ss=Ibis+Paris+Pont+de+Suresnes,48.8683892,2.2273598
435,6,Paris,Ibis Budget Courbevoie La Défense,3.0,Non renseigné,https://www.booking.com/search.html?ss=Ibis+Budget+Courbevoie+La+Défense,48.895549,2.2617833
436,6,Paris,Le Meurice,3.0,Non renseigné,https://www.booking.com/search.html?ss=Le+Meurice,48.8652754,2.3282212
437,6,Paris,Hôtel Saint-James & Albany,3.0,Non renseigné,https://www.booking.com/search.html?ss=Hôtel+Saint-James+&+Albany,48.8642866,2.3308345
438,6,Paris,Hôtel Courtyard by Marriott,3.0,Avenue du Président Salvador Allende,https://www.booking.com/search.html?ss=Hôtel+Courtyard+by+Marriott,48.8101415,2.3280443
439,6,Paris,l’Apostrophe,3.0,Non renseigné,https://www.booking.com/search.html?ss=l’Apostrophe,48.8417997,2.3317623
440,6,Paris,William's Opera,3.0,Non renseigné,https://www.booking.com/search.html?ss=William's+Opera,48.8768201,2.3458424
441,6,Paris,Ibis Paris Gare de l'Est TGV,3.0,Non renseigné,https://www.booking.com/search.html?ss=Ibis+Paris+Gare+de+l'Est+TGV,48.8755387,2.3585201
442,6,Paris,Sleeping Belle,4.0,Rue de Bercy,https://www.booking.com/search.html?ss=Sleeping+Belle,48.8466561,2.3698592
443,6,Paris,La Maison Blanche,3.0,Non renseigné,https://www.booking.com/search.html?ss=La+Maison+Blanche,48.8226147,2.3587102
444,6,Paris,Les Séjours du Grand Stade,3.0,Non renseigné,https://www.booking.com/search.html?ss=Les+Séjours+du+Grand+Stade,48.9237057,2.3646771
445,6,Paris,Eiffel Saint-Charles,3.0,Non renseigné,https://www.booking.com/search.html?ss=Eiffel+Saint-Charles,48.849868,2.2884782
446,6,Paris,Hôtel de Nantes,3.0,Non renseigné,https://www.booking.com/search.html?ss=Hôtel+de+Nantes,48.884465,2.3679226
447,6,Paris,Hôtel d'Espagne,3.0,Non renseigné,https://www.booking.com/search.html?ss=Hôtel+d'Espagne,48.8720379,2.3446636
448,6,Paris,Le Victor Hugo,3.0,Non renseigné,https://www.booking.com/search.html?ss=Le+Victor+Hugo,48.9063522,2.3243704
449,6,Paris,Hôtel Montalembert,5.0,Non renseigné,https://www.booking.com/search.html?ss=Hôtel+Montalembert,48.8566846,2.3278974
450,6,Paris,Grand Hôtel du Bel Air,3.0,Non renseigné,https://www.booking.com/search.html?ss=Grand+Hôtel+du+Bel+Air,48.8473466,2.3995162
451,6,Paris,Hôtel CourSeine,3.0,Non renseigné,https://www.booking.com/search.html?ss=Hôtel+CourSeine,48.8990454,2.2464145
452,6,Paris,Hôtel du Petit Louvre,3.0,Non renseigné,https://www.booking.com/search.html?ss=Hôtel+du+Petit+Louvre,48.8505284,2.2923897
453,6,Paris,Ami,3.0,Non renseigné,https://www.booking.com/search.html?ss=Ami,48.8413079,2.3027992
454,6,Paris,Le Daum,3.0,Rue Gossec,https://www.booking.com/search.html?ss=Le+Daum,48.8387905,2.4008358
455,6,Paris,Hôtel Chatillon Paris Montparnasse,3.0,Non renseigné,https://www.booking.com/search.html?ss=Hôtel+Chatillon+Paris+Montparnasse,48.825673,2.3232405
456,6,Paris,Hôtel Avalon Paris,3.0,Non renseigné,https://www.booking.com/search.html?ss=Hôtel+Avalon+Paris,48.8811174,2.3514426
457,6,Paris,Hôtellerie Paris Saint-Honoré,3.0,Non renseigné,https://www.booking.com/search.html?ss=Hôtellerie+Paris+Saint-Honoré,48.8727937,2.3157855
458,6,Paris,La Croix de Malte,3.0,Non renseigné,https://www.booking.com/search.html?ss=La+Croix+de+Malte,48.8636313,2.3690033
459,6,Paris,Hôtel London,3.0,Boulevard des Italiens,https://www.booking.com/search.html?ss=Hôtel+London,48.8713271,2.3351551
460,6,Paris,Hôtel 10 Opéra,3.0,Rue du Helder,https://www.booking.com/search.html?ss=Hôtel+10+Opéra,48.8718954,2.3350541
461,6,Paris,Hôtel Langlois,2.0,Rue Saint-Lazare,https://www.booking.com/search.html?ss=Hôtel+Langlois,48.8768039,2.3336297
462,6,Paris,Baudelaire,3.0,Non renseigné,https://www.booking.com/search.html?ss=Baudelaire,48.8679824,2.3362288
463,6,Paris,Alison,3.0,Non renseigné,https://www.booking.com/search.html?ss=Alison,48.871017,2.3202503
464,6,Paris,La Sanguine,3.0,Non renseigné,https://www.booking.com/search.html?ss=La+Sanguine,48.8706452,2.3219942
465,6,Paris,Hôtel de Sèze,3.0,Non renseigné,https://www.booking.com/search.html?ss=Hôtel+de+Sèze,48.8705622,2.3263811
466,6,Paris,Novotel Paris Charenton,4.0,Non renseigné,https://www.booking.com/search.html?ss=Novotel+Paris+Charenton,48.8265002,2.4051977
467,6,Paris,Le Clos d'Alésia,3.0,Non renseigné,https://www.booking.com/search.html?ss=Le+Clos+d'Alésia,48.8261537,2.3243946
468,6,Paris,Le Home,2.0,Non renseigné,https://www.booking.com/search.html?ss=Le+Home,48.8461244,2.4335366
469,6,Paris,Ibis Styles Paris Nation Cours de Vincennes,3.0,Non renseigné,https://www.booking.com/search.html?ss=Ibis+Styles+Paris+Nation+Cours+de+Vincennes,48.8469348,2.4080026
470,6,Paris,Hôtel du Moulin,2.0,Non renseigné,https://www.booking.com/search.html?ss=Hôtel+du+Moulin,48.885336,2.3350946
471,6,Paris,Modern Hotel,2.0,Non renseigné,https://www.booking.com/search.html?ss=Modern+Hotel,48.8618761,2.3831957
472,6,Paris,Luxor Bastille Hôtel,3.0,Rue Moreau,https://www.booking.com/search.html?ss=Luxor+Bastille+Hôtel,48.8502622,2.3730838
473,6,Paris,Le Versigny,3.0,Non renseigné,https://www.booking.com/search.html?ss=Le+Versigny,48.895273,2.343192
474,6,Paris,Hôtel du Bon Séjour,3.0,Non renseigné,https://www.booking.com/search.html?ss=Hôtel+du+Bon+Séjour,48.892932,2.3433
475,6,Paris,Hôtel Le 17,3.0,Non renseigné,https://www.booking.com/search.html?ss=Hôtel+Le+17,48.8704572,2.3610027
476,6,Paris,Résidence Mouffetard,3.0,Non renseigné,https://www.booking.com/search.html?ss=Résidence+Mouffetard,48.8432503,2.3497657
477,6,Paris,Hôtel Westminster,3.0,Non renseigné,https://www.booking.com/search.html?ss=Hôtel+Westminster,48.8693831,2.3310566
478,6,Paris,Mandarin Oriental,5.0,Non renseigné,https://www.booking.com/search.html?ss=Mandarin+Oriental,48.8670213,2.3272218
479,6,Paris,Hôtel André Latin,3.0,Rue Gay-Lussac,https://www.booking.com/search.html?ss=Hôtel+André+Latin,48.8428306,2.3425937
480,6,Paris,Hôtel Banke,3.0,Non renseigné,https://www.booking.com/search.html?ss=Hôtel+Banke,48.8736554,2.3360245
481,6,Paris,Thoumieux,3.0,Non renseigné,https://www.booking.com/search.html?ss=Thoumieux,48.8595817,2.3086929
482,6,Paris,Le Seven,4.0,Non renseigné,https://www.booking.com/search.html?ss=Le+Seven,48.8389861,2.3455789
483,6,Paris,Hôtel Apogia Paris,3.0,Non renseigné,https://www.booking.com/search.html?ss=Hôtel+Apogia+Paris,48.8201479,2.395149
484,6,Paris,Hôtel des Grandes Écoles,3.0,Non renseigné,https://www.booking.com/search.html?ss=Hôtel+des+Grandes+Écoles,48.8451928,2.3505337
485,6,Paris,Ibis Paris Brancion parc des expositions,3.0,Non renseigné,https://www.booking.com/search.html?ss=Ibis+Paris+Brancion+parc+des+expositions,48.8302757,2.3020508
486,6,Paris,Hôtel Regyn's,3.0,Place des Abbesses,https://www.booking.com/search.html?ss=Hôtel+Regyn's,48.8846283,2.3381804
487,6,Paris,Hôtel du Trosy,3.0,Non renseigné,https://www.booking.com/search.html?ss=Hôtel+du+Trosy,48.8027119,2.2625813
488,6,Paris,Grand Hôtel,3.0,Avenue Aristide Briand,https://www.booking.com/search.html?ss=Grand+Hôtel,48.7795469,2.2607977
489,6,Paris,Séjours&Affaires Paris Vitry,3.0,Boulevard de Stalingrad,https://www.booking.com/search.html?ss=Séjours&Affaires+Paris+Vitry,48.7998735,2.3811434
490,6,Paris,Hôtel André Gill,2.0,Non renseigné,https://www.booking.com/search.html?ss=Hôtel+André+Gill,48.8827924,2.3402418
491,6,Paris,Villa Mademoiselle,3.0,Non renseigné,https://www.booking.com/search.html?ss=Villa+Mademoiselle,48.8437234,2.2967496
492,6,Paris,Hôtel Belambra Magendie (Touring Hotel),3.0,Non renseigné,https://www.booking.com/search.html?ss=Hôtel+Belambra+Magendie+(Touring+Hotel),48.8340571,2.346078
493,6,Paris,Hôtel Mogador,2.0,Non renseigné,https://www.booking.com/search.html?ss=Hôtel+Mogador,48.8751482,2.3354544
494,6,Paris,Holiday Inn Paris Opéra,4.0,Non renseigné,https://www.booking.com/search.html?ss=Holiday+Inn+Paris+Opéra,48.8716034,2.3435792
495,6,Paris,Hôtel R de Paris,4.0,Non renseigné,https://www.booking.com/search.html?ss=Hôtel+R+de+Paris,48.8799454,2.3289718
496,6,Paris,Hôtel Antin Trinité,2.0,Rue de Provence,https://www.booking.com/search.html?ss=Hôtel+Antin+Trinité,48.8743615,2.3321163
497,6,Paris,Opéra d'Antin,3.0,Non renseigné,https://www.booking.com/search.html?ss=Opéra+d'Antin,48.8742273,2.3320136
498,6,Paris,Bloum,3.0,Non renseigné,https://www.booking.com/search.html?ss=Bloum,48.8765596,2.3401099
499,6,Paris,Hôtel Impérial,3.0,Non renseigné,https://www.booking.com/search.html?ss=Hôtel+Impérial,48.8751153,2.3361132
500,6,Paris,Hôtel Paris Vaugirard,3.0,Rue de Vaugirard,https://www.booking.com/search.html?ss=Hôtel+Paris+Vaugirard,48.8331256,2.2892198
501,6,Paris,Hôtel Littéraire Marcel Aymé,3.0,Rue Tholozé,https://www.booking.com/search.html?ss=Hôtel+Littéraire+Marcel+Aymé,48.8864902,2.3356152
502,6,Paris,Hôtel Mercure Paris Montmartre Sacré Cœur,3.0,Rue Caulaincourt,https://www.booking.com/search.html?ss=Hôtel+Mercure+Paris+Montmartre+Sacré+Cœur,48.8852398,2.3300554
503,6,Paris,Hôtel Ibis Paris Montmartre,3.0,Rue Caulaincourt,https://www.booking.com/search.html?ss=Hôtel+Ibis+Paris+Montmartre,48.8853086,2.3302109
504,6,Paris,Art Hotel Batignolles,3.0,Rue Legendre,https://www.booking.com/search.html?ss=Art+Hotel+Batignolles,48.8879853,2.3209583
505,6,Paris,Hôtel de Flore 108 rue Lamarck,3.0,Non renseigné,https://www.booking.com/search.html?ss=Hôtel+de+Flore+108+rue+Lamarck,48.8905518,2.335084
506,6,Paris,Holliday Inn Garden Court,3.0,Non renseigné,https://www.booking.com/search.html?ss=Holliday+Inn+Garden+Court,48.8888344,2.3331457
507,6,Paris,Le Rocroy,3.0,Non renseigné,https://www.booking.com/search.html?ss=Le+Rocroy,48.8797188,2.3507524
508,6,Paris,Hôtel Mercure,4.0,Boulevard Marguerite de Rochechouart,https://www.booking.com/search.html?ss=Hôtel+Mercure,48.8825769,2.3415403
509,6,Paris,Hôtel des Arènes,3.0,Non renseigné,https://www.booking.com/search.html?ss=Hôtel+des+Arènes,48.8450579,2.3523699
510,6,Paris,Hôtel Studia,1.0,Non renseigné,https://www.booking.com/search.html?ss=Hôtel+Studia,48.8501323,2.3476328
511,6,Paris,Renaissance Paris Vendôme Hotel,3.0,Non renseigné,https://www.booking.com/search.html?ss=Renaissance+Paris+Vendôme+Hotel,48.8654715,2.3296865
512,6,Paris,Hôtel Ibis Styles,3.0,Non renseigné,https://www.booking.com/search.html?ss=Hôtel+Ibis+Styles,48.778593,2.2943292
513,6,Paris,Le Patio Bastille,3.0,Rue du Faubourg Saint-Antoine,https://www.booking.com/search.html?ss=Le+Patio+Bastille,48.8493667,2.3904393
514,6,Paris,Ibis Styles Paris Mairie de Montreuil,3.0,Non renseigné,https://www.booking.com/search.html?ss=Ibis+Styles+Paris+Mairie+de+Montreuil,48.8625559,2.4435914
515,6,Paris,Ideal Hotel,3.0,Non renseigné,https://www.booking.com/search.html?ss=Ideal+Hotel,48.8557377,2.4225769
516,6,Paris,Hôtel Le M,4.0,Non renseigné,https://www.booking.com/search.html?ss=Hôtel+Le+M,48.8397318,2.3233917
517,6,Paris,Hôtel de Sévigné,3.0,Non renseigné,https://www.booking.com/search.html?ss=Hôtel+de+Sévigné,48.8688058,2.2924351
518,6,Paris,Citadines,4.0,Rue des Innocents,https://www.booking.com/search.html?ss=Citadines,48.860658,2.3469337
519,6,Paris,Étoile Saint-Ferdinand,4.0,Non renseigné,https://www.booking.com/search.html?ss=Étoile+Saint-Ferdinand,48.8777667,2.2873179
520,6,Paris,Citadines Apart'Hotel,3.0,Non renseigné,https://www.booking.com/search.html?ss=Citadines+Apart'Hotel,48.8280249,2.3153561
521,6,Paris,Première Classe,3.0,Non renseigné,https://www.booking.com/search.html?ss=Première+Classe,48.8685859,2.4312192
522,6,Paris,Hôtel Terminus Montparnasse,3.0,Non renseigné,https://www.booking.com/search.html?ss=Hôtel+Terminus+Montparnasse,48.844353,2.323339
523,6,Paris,Mercure Gare Montparnasse,3.0,Non renseigné,https://www.booking.com/search.html?ss=Mercure+Gare+Montparnasse,48.8400229,2.3235906
524,6,Paris,Libertel Montmartre Duperré,3.0,Rue Duperré,https://www.booking.com/search.html?ss=Libertel+Montmartre+Duperré,48.8820719,2.334511
525,6,Paris,Ibis Paris Porte de Montreuil,3.0,Avenue du Professeur André Lemierre,https://www.booking.com/search.html?ss=Ibis+Paris+Porte+de+Montreuil,48.8545825,2.4157664
526,6,Paris,Renaissance Paris Arc de Triomphe Hotel,3.0,Non renseigné,https://www.booking.com/search.html?ss=Renaissance+Paris+Arc+de+Triomphe+Hotel,48.8770492,2.2970676
527,6,Paris,Hôtel La Comtesse by Elegancia,3.0,Avenue de Tourville,https://www.booking.com/search.html?ss=Hôtel+La+Comtesse+by+Elegancia,48.8539009,2.307242
528,6,Paris,Hôtel Berkeley,3.0,Non renseigné,https://www.booking.com/search.html?ss=Hôtel+Berkeley,48.842941,2.3242099
529,6,Paris,Hôtel Le Victor Hugp,3.0,Rue Louis Rolland,https://www.booking.com/search.html?ss=Hôtel+Le+Victor+Hugp,48.8169533,2.3205788
530,6,Paris,Platine,3.0,Non renseigné,https://www.booking.com/search.html?ss=Platine,48.8473814,2.2833183
531,6,Paris,Hôtel du Parc,2.0,Non renseigné,https://www.booking.com/search.html?ss=Hôtel+du+Parc,48.8221986,2.3021635
532,6,Paris,Hôtel Patio Brancion,2.0,Non renseigné,https://www.booking.com/search.html?ss=Hôtel+Patio+Brancion,48.8227928,2.2999903
533,6,Paris,Hôtel de la Place,2.0,Non renseigné,https://www.booking.com/search.html?ss=Hôtel+de+la+Place,48.821878,2.3018924
534,6,Paris,Le Carmin,3.0,Non renseigné,https://www.booking.com/search.html?ss=Le+Carmin,48.7924032,2.3860531
535,6,Paris,New Hotel Saint-Lazare,3.0,Non renseigné,https://www.booking.com/search.html?ss=New+Hotel+Saint-Lazare,48.8801993,2.3268856
536,6,Paris,Hôtel Londres & New-york,3.0,Non renseigné,https://www.booking.com/search.html?ss=Hôtel+Londres+&+New-york,48.8753163,2.326288
537,6,Paris,Le Quorum,3.0,Non renseigné,https://www.booking.com/search.html?ss=Le+Quorum,48.8426718,2.2073443
538,6,Paris,Hôtel de Paris,2.0,Rue de la République,https://www.booking.com/search.html?ss=Hôtel+de+Paris,48.8845764,2.2382232
539,6,Paris,Le Pavillon Bastille,3.0,Non renseigné,https://www.booking.com/search.html?ss=Le+Pavillon+Bastille,48.8508057,2.3698822
540,6,Paris,Shangri-La Hotel,3.0,Avenue d'Iéna,https://www.booking.com/search.html?ss=Shangri-La+Hotel,48.8637194,2.2934262
541,6,Paris,Périphérique hotel,3.0,Non renseigné,https://www.booking.com/search.html?ss=Périphérique+hotel,48.8143073,2.360612
542,6,Paris,Hôtel Max,3.0,Non renseigné,https://www.booking.com/search.html?ss=Hôtel+Max,48.8279437,2.3297879
543,6,Paris,61 Paris Nation Hôtel,3.0,Non renseigné,https://www.booking.com/search.html?ss=61+Paris+Nation+Hôtel,48.8465206,2.4102795
544,6,Paris,La Planète Bleue,3.0,Non renseigné,https://www.booking.com/search.html?ss=La+Planète+Bleue,48.9048642,2.3905848
545,6,Paris,Palma Hotel,3.0,Non renseigné,https://www.booking.com/search.html?ss=Palma+Hotel,48.865044,2.3976767
546,6,Paris,Résidence de la Tour,3.0,Non renseigné,https://www.booking.com/search.html?ss=Résidence+de+la+Tour,48.8224461,2.3036291
547,6,Paris,Le Baron,3.0,Non renseigné,https://www.booking.com/search.html?ss=Le+Baron,48.8241267,2.3617523
548,6,Paris,AmHotel Italie,2.0,Non renseigné,https://www.booking.com/search.html?ss=AmHotel+Italie,48.8250171,2.3610514
549,6,Paris,Arian Hotel,1.0,Non renseigné,https://www.booking.com/search.html?ss=Arian+Hotel,48.8252188,2.3608916
550,6,Paris,Windsor Opera,4.0,Non renseigné,https://www.booking.com/search.html?ss=Windsor+Opera,48.8734789,2.3485534
551,6,Paris,Auberge de l'Europe,3.0,Rue Saint-Just,https://www.booking.com/search.html?ss=Auberge+de+l'Europe,48.8119983,2.3911416
552,6,Paris,Meridional,3.0,Non renseigné,https://www.booking.com/search.html?ss=Meridional,48.8900035,2.3233253
553,6,Paris,Mercure Paris Vaugirard Porte de Versailles,4.0,Non renseigné,https://www.booking.com/search.html?ss=Mercure+Paris+Vaugirard+Porte+de+Versailles,48.8330436,2.2880199
554,6,Paris,Porte de Versailles Hotel,3.0,Non renseigné,https://www.booking.com/search.html?ss=Porte+de+Versailles+Hotel,48.8351584,2.2825386
555,6,Paris,Hôtel Riquet,3.0,Non renseigné,https://www.booking.com/search.html?ss=Hôtel+Riquet,48.8901866,2.3614476
556,6,Paris,Hôtel de la Poste,3.0,Non renseigné,https://www.booking.com/search.html?ss=Hôtel+de+la+Poste,48.8902032,2.3611081
557,6,Paris,Hôtel Clarisse,2.0,Non renseigné,https://www.booking.com/search.html?ss=Hôtel+Clarisse,48.8290014,2.3005012
558,6,Paris,Quorum,3.0,Non renseigné,https://www.booking.com/search.html?ss=Quorum,48.8430076,2.2073079
559,6,Paris,Hôtel Exelmans,3.0,Non renseigné,https://www.booking.com/search.html?ss=Hôtel+Exelmans,48.8413822,2.2626522
560,6,Paris,Hôtel Boileau,3.0,Non renseigné,https://www.booking.com/search.html?ss=Hôtel+Boileau,48.8407519,2.2624259
561,6,Paris,Ibis budget Paris Porte de Montmartre,3.0,Non renseigné,https://www.booking.com/search.html?ss=Ibis+budget+Paris+Porte+de+Montmartre,48.9011584,2.3341043
562,6,Paris,Kopster,4.0,Boulevard Victor,https://www.booking.com/search.html?ss=Kopster,48.8362078,2.2787992
563,6,Paris,Villa royale Montsouris,4.0,Non renseigné,https://www.booking.com/search.html?ss=Villa+royale+Montsouris,48.8234693,2.3306543
564,6,Paris,Hôtel Virgina,3.0,Non renseigné,https://www.booking.com/search.html?ss=Hôtel+Virgina,48.8240238,2.3274437
565,6,Paris,Hôtel Montsouris Orléans,1.0,Non renseigné,https://www.booking.com/search.html?ss=Hôtel+Montsouris+Orléans,48.8240433,2.3300803
566,6,Paris,Hôtel Beaunier,2.0,Non renseigné,https://www.booking.com/search.html?ss=Hôtel+Beaunier,48.8242675,2.3289215
567,6,Paris,Glam's Hotel,3.0,Non renseigné,https://www.booking.com/search.html?ss=Glam's+Hotel,48.8244918,2.3272586
568,6,Paris,Parc Hôtel,3.0,Non renseigné,https://www.booking.com/search.html?ss=Parc+Hôtel,48.8246933,2.3268171
569,6,Paris,Sports Hotel,1.0,Non renseigné,https://www.booking.com/search.html?ss=Sports+Hotel,48.8247319,2.3264861
570,6,Paris,Hôtel du Parc Saint-Charles,2.0,Non renseigné,https://www.booking.com/search.html?ss=Hôtel+du+Parc+Saint-Charles,48.8371866,2.2775249
571,6,Paris,Hôtel Source,3.0,Non renseigné,https://www.booking.com/search.html?ss=Hôtel+Source,48.8964346,2.3283996
572,6,Paris,Timhotel Nation,3.0,Rue d'Avron,https://www.booking.com/search.html?ss=Timhotel+Nation,48.8515323,2.3989998
573,6,Paris,Dupleix Hotel,3.0,Non renseigné,https://www.booking.com/search.html?ss=Dupleix+Hotel,48.850407,2.2920238
574,6,Paris,Hôtel Tolbiac,1.0,Non renseigné,https://www.booking.com/search.html?ss=Hôtel+Tolbiac,48.8263167,2.3603544
575,6,Paris,Hôtel Torcy,3.0,Non renseigné,https://www.booking.com/search.html?ss=Hôtel+Torcy,48.8910813,2.3604459
576,6,Paris,Hôtel de Belfort,3.0,Rue de Belfort,https://www.booking.com/search.html?ss=Hôtel+de+Belfort,48.8569026,2.384843
577,6,Paris,Hôtel Palais de Chaillot,3.0,Avenue Raymond Poincaré,https://www.booking.com/search.html?ss=Hôtel+Palais+de+Chaillot,48.8657423,2.2861553
578,6,Paris,Hôtel Belfort,3.0,Non renseigné,https://www.booking.com/search.html?ss=Hôtel+Belfort,48.892134,2.3603868
579,6,Paris,Hôtel Mirific,3.0,Non renseigné,https://www.booking.com/search.html?ss=Hôtel+Mirific,48.8898808,2.3211159
580,6,Paris,Lennon Hotel,3.0,Non renseigné,https://www.booking.com/search.html?ss=Lennon+Hotel,48.8808975,2.3516143
581,6,Paris,Le Petit Belloy,2.0,Non renseigné,https://www.booking.com/search.html?ss=Le+Petit+Belloy,48.8502129,2.3421749
582,6,Paris,Hôtel Belloy Saint-Germain,4.0,Non renseigné,https://www.booking.com/search.html?ss=Hôtel+Belloy+Saint-Germain,48.8503717,2.3422419
583,6,Paris,Sanso,3.0,Rue de Tolbiac,https://www.booking.com/search.html?ss=Sanso,48.8293498,2.374812
584,6,Paris,Paris Montmartre Hôtel,3.0,Non renseigné,https://www.booking.com/search.html?ss=Paris+Montmartre+Hôtel,48.8845083,2.3257947
585,6,Paris,Hôtel Pavillon de la reine,4.0,Non renseigné,https://www.booking.com/search.html?ss=Hôtel+Pavillon+de+la+reine,48.8564346,2.3661288
586,6,Paris,Hôtel des Pyrénées,3.0,Non renseigné,https://www.booking.com/search.html?ss=Hôtel+des+Pyrénées,48.873786,2.3860479
587,6,Paris,Amiral,4.0,Non renseigné,https://www.booking.com/search.html?ss=Amiral,48.825296,2.3572182
588,6,Paris,Green Park Hotel,3.0,Non renseigné,https://www.booking.com/search.html?ss=Green+Park+Hotel,48.8783108,2.3843089
589,6,Paris,Hôtel Magellan,3.0,Non renseigné,https://www.booking.com/search.html?ss=Hôtel+Magellan,48.8834554,2.2924752
590,6,Paris,Hôtel Cyrano,3.0,Non renseigné,https://www.booking.com/search.html?ss=Hôtel+Cyrano,48.8868844,2.321676
591,6,Paris,Le Petit Cosy,3.0,Boulevard de Picpus,https://www.booking.com/search.html?ss=Le+Petit+Cosy,48.8446684,2.4024604
592,6,Paris,Campanile Paris Est - Porte de Bagnolet,3.0,Avenue du Général de Gaulle,https://www.booking.com/search.html?ss=Campanile+Paris+Est+-+Porte+de+Bagnolet,48.8652815,2.4164888
593,6,Paris,Hôtel du Château,3.0,Non renseigné,https://www.booking.com/search.html?ss=Hôtel+du+Château,48.8451303,2.4350107
594,6,Paris,Hotel de la poste,3.0,Non renseigné,https://www.booking.com/search.html?ss=Hotel+de+la+poste,48.8347034,2.2394018
595,6,Paris,Armoni Hotel,3.0,Villa Berthier,https://www.booking.com/search.html?ss=Armoni+Hotel,48.8851415,2.2930709
596,6,Paris,Hôtel Champerret-Héliopolis,3.0,Rue d'Héliopolis,https://www.booking.com/search.html?ss=Hôtel+Champerret-Héliopolis,48.8850808,2.2936804
597,6,Paris,Piapia,3.0,Rue des Maraîchers,https://www.booking.com/search.html?ss=Piapia,48.8486326,2.4079461
598,6,Paris,Hôtel Flor Rivoli,2.0,Non renseigné,https://www.booking.com/search.html?ss=Hôtel+Flor+Rivoli,48.8591442,2.3451909
599,6,Paris,Grand Hôtel Dechampaigne,3.0,Non renseigné,https://www.booking.com/search.html?ss=Grand+Hôtel+Dechampaigne,48.8587815,2.3453015
600,6,Paris,Le Petit Cantal,3.0,Non renseigné,https://www.booking.com/search.html?ss=Le+Petit+Cantal,48.8146822,2.4010226
601,6,Paris,Louvre Montana,4.0,Non renseigné,https://www.booking.com/search.html?ss=Louvre+Montana,48.864469,2.3318128
602,6,Paris,La Cantina,3.0,Non renseigné,https://www.booking.com/search.html?ss=La+Cantina,48.8174526,2.3985388
603,6,Paris,Grand hôtel amelot,3.0,Non renseigné,https://www.booking.com/search.html?ss=Grand+hôtel+amelot,48.8592591,2.3683806
604,6,Paris,Louis II,4.0,Non renseigné,https://www.booking.com/search.html?ss=Louis+II,48.8516052,2.3382057
605,6,Paris,Cordelia,3.0,Non renseigné,https://www.booking.com/search.html?ss=Cordelia,48.8731572,2.3252446
606,6,Paris,Hôtel 34B,3.0,Rue Bergère,https://www.booking.com/search.html?ss=Hôtel+34B,48.8727003,2.3435855
607,6,Paris,Hôtel marais bastille,3.0,Non renseigné,https://www.booking.com/search.html?ss=Hôtel+marais+bastille,48.8573297,2.3715214
608,6,Paris,Hôtel Villa des Ternes,3.0,Non renseigné,https://www.booking.com/search.html?ss=Hôtel+Villa+des+Ternes,48.8803203,2.2858761
609,6,Paris,Hôtel Champerret-Élysées,3.0,Non renseigné,https://www.booking.com/search.html?ss=Hôtel+Champerret-Élysées,48.8851889,2.2939544
610,6,Paris,Notre-Dame,3.0,Non renseigné,https://www.booking.com/search.html?ss=Notre-Dame,48.8503654,2.3494131
611,6,Paris,Régina,2.0,Non renseigné,https://www.booking.com/search.html?ss=Régina,48.8172055,2.3162541
612,6,Paris,Pavillon Courcelles Parc Monceau,3.0,Non renseigné,https://www.booking.com/search.html?ss=Pavillon+Courcelles+Parc+Monceau,48.8841956,2.3161259
613,6,Paris,Pavillon Villiers Étoile,3.0,Non renseigné,https://www.booking.com/search.html?ss=Pavillon+Villiers+Étoile,48.8836309,2.316295
614,6,Paris,Auriane Porte de Versailles,3.0,Non renseigné,https://www.booking.com/search.html?ss=Auriane+Porte+de+Versailles,48.8341199,2.2951841
615,6,Paris,Grand Hotel Clichy,3.0,Non renseigné,https://www.booking.com/search.html?ss=Grand+Hotel+Clichy,48.8988632,2.3074021
616,6,Paris,Le Verdun,3.0,Non renseigné,https://www.booking.com/search.html?ss=Le+Verdun,48.8109924,2.3160079
617,6,Paris,Beauséjour Montmartre,3.0,Non renseigné,https://www.booking.com/search.html?ss=Beauséjour+Montmartre,48.8836722,2.3257995
618,6,Paris,Les Coquelicots,3.0,Non renseigné,https://www.booking.com/search.html?ss=Les+Coquelicots,48.8125649,2.3191448
619,6,Paris,Adagio,3.0,Rue Eliane Jeannin-Garreau,https://www.booking.com/search.html?ss=Adagio,48.8310386,2.2809023
620,6,Paris,Le Petit Relais,3.0,Non renseigné,https://www.booking.com/search.html?ss=Le+Petit+Relais,48.8108859,2.3580359
621,6,Paris,Hôtel abbatial Saint-Germain,3.0,Non renseigné,https://www.booking.com/search.html?ss=Hôtel+abbatial+Saint-Germain,48.8497498,2.3505242
622,6,Paris,Hôtel le Relais Saint Charles,3.0,Non renseigné,https://www.booking.com/search.html?ss=Hôtel+le+Relais+Saint+Charles,48.850277,2.2933596
623,6,Paris,Mercure Paris - Tour Eiffel,4.0,Non renseigné,https://www.booking.com/search.html?ss=Mercure+Paris+-+Tour+Eiffel,48.8504482,2.2926945
624,6,Paris,Hôtel Korner Eiffel,3.0,Non renseigné,https://www.booking.com/search.html?ss=Hôtel+Korner+Eiffel,48.8465583,2.2886239
625,6,Paris,Arc Paris Porte d'Orléans,3.0,Non renseigné,https://www.booking.com/search.html?ss=Arc+Paris+Porte+d'Orléans,48.817578,2.3242363
626,6,Paris,Le Florus,3.0,Rue Gabriel Péri,https://www.booking.com/search.html?ss=Le+Florus,48.8177423,2.3234029
627,6,Paris,Hôtel Paris Orléans,3.0,Non renseigné,https://www.booking.com/search.html?ss=Hôtel+Paris+Orléans,48.8113013,2.326112
628,6,Paris,Adagio Aparthotel,4.0,Non renseigné,https://www.booking.com/search.html?ss=Adagio+Aparthotel,48.820106,2.3114776
629,6,Paris,Hôtel Le Murat,3.0,Non renseigné,https://www.booking.com/search.html?ss=Hôtel+Le+Murat,48.8148358,2.3255189
630,6,Paris,Hôtel Chopin,2.0,Passage Jouffroy,https://www.booking.com/search.html?ss=Hôtel+Chopin,48.8726389,2.3422288
631,6,Paris,Hôtel de la Paix,3.0,Non renseigné,https://www.booking.com/search.html?ss=Hôtel+de+la+Paix,48.8568044,2.3030573
632,6,Paris,Hôtel Perreyve,3.0,Non renseigné,https://www.booking.com/search.html?ss=Hôtel+Perreyve,48.847132,2.3316957
633,6,Paris,Bonsoir Madame,3.0,Rue Madame,https://www.booking.com/search.html?ss=Bonsoir+Madame,48.8469032,2.3316463
634,6,Paris,Hôtel de France,3.0,Non renseigné,https://www.booking.com/search.html?ss=Hôtel+de+France,48.847567,2.3718879
635,6,Paris,Istria Montparnasse,3.0,Non renseigné,https://www.booking.com/search.html?ss=Istria+Montparnasse,48.8390829,2.3316404
636,6,Paris,Hôtel Madeleine Plaza,4.0,Non renseigné,https://www.booking.com/search.html?ss=Hôtel+Madeleine+Plaza,48.8710803,2.3248004
637,6,Paris,Andréa Rivoli,3.0,Rue Saint-Bon,https://www.booking.com/search.html?ss=Andréa+Rivoli,48.8581962,2.3502811
638,6,Paris,26 Faubourg,3.0,Non renseigné,https://www.booking.com/search.html?ss=26+Faubourg,48.8471284,2.3776102
639,6,Paris,Hipotel,3.0,Non renseigné,https://www.booking.com/search.html?ss=Hipotel,48.8762302,2.3710355
640,6,Paris,Diva Opéra,4.0,Non renseigné,https://www.booking.com/search.html?ss=Diva+Opéra,48.8732766,2.345035
641,6,Paris,Résidence Châtillon,2.0,Non renseigné,https://www.booking.com/search.html?ss=Résidence+Châtillon,48.82603,2.325915
642,6,Paris,Hôtel de l'Alma,3.0,Non renseigné,https://www.booking.com/search.html?ss=Hôtel+de+l'Alma,48.8569311,2.3033559
643,6,Paris,Le Clos des Rosiers,3.0,Non renseigné,https://www.booking.com/search.html?ss=Le+Clos+des+Rosiers,48.8084768,2.2967265
644,6,Paris,Hôtel Royal Saint-Honoré,3.0,Non renseigné,https://www.booking.com/search.html?ss=Hôtel+Royal+Saint-Honoré,48.8656979,2.3299557
645,6,Paris,Ibis Styles Paris Pigalle Montmartre Hôtel,3.0,Non renseigné,https://www.booking.com/search.html?ss=Ibis+Styles+Paris+Pigalle+Montmartre+Hôtel,48.8812655,2.3374244
646,6,Paris,Hôtel Fertel Maillot,3.0,Non renseigné,https://www.booking.com/search.html?ss=Hôtel+Fertel+Maillot,48.8781397,2.2852446
647,6,Paris,Central hotel,3.0,Non renseigné,https://www.booking.com/search.html?ss=Central+hotel,48.8526126,2.3891625
648,6,Paris,Hôtel de Neuville,4.0,Rue Verniquet,https://www.booking.com/search.html?ss=Hôtel+de+Neuville,48.886898,2.300469
649,6,Paris,Hôtel Prony,3.0,Non renseigné,https://www.booking.com/search.html?ss=Hôtel+Prony,48.884629,2.29843
650,6,Paris,Hôtel Courcelles Étoile,3.0,Rue de Courcelles,https://www.booking.com/search.html?ss=Hôtel+Courcelles+Étoile,48.884451,2.297989
651,6,Paris,Hôtel Nude Paris,3.0,Non renseigné,https://www.booking.com/search.html?ss=Hôtel+Nude+Paris,48.8405982,2.3344749
652,6,Paris,Hôtel Musset,1.0,Non renseigné,https://www.booking.com/search.html?ss=Hôtel+Musset,48.8188773,2.306919
653,6,Paris,Moderne Hotel,1.0,Non renseigné,https://www.booking.com/search.html?ss=Moderne+Hotel,48.8188421,2.3066759
654,6,Paris,Apolonia,3.0,Non renseigné,https://www.booking.com/search.html?ss=Apolonia,48.8432192,2.34944
655,6,Paris,Hôtel Design de la Sorbonne,3.0,Non renseigné,https://www.booking.com/search.html?ss=Hôtel+Design+de+la+Sorbonne,48.8481281,2.3424839
656,6,Paris,Hôtel Atlantide,3.0,Non renseigné,https://www.booking.com/search.html?ss=Hôtel+Atlantide,48.8183672,2.308014
657,6,Paris,Hôtel du Calvados,3.0,Non renseigné,https://www.booking.com/search.html?ss=Hôtel+du+Calvados,48.876716,2.327027
658,6,Paris,Austin's Saint-Lazare,3.0,Non renseigné,https://www.booking.com/search.html?ss=Austin's+Saint-Lazare,48.876945,2.327003
659,6,Paris,Élysées Union,3.0,Non renseigné,https://www.booking.com/search.html?ss=Élysées+Union,48.8683432,2.2918443
660,6,Paris,Hôtel Kyriad,3.0,Non renseigné,https://www.booking.com/search.html?ss=Hôtel+Kyriad,48.8766674,2.3587492
661,6,Paris,Hôtel Michelet Odéon,3.0,Non renseigné,https://www.booking.com/search.html?ss=Hôtel+Michelet+Odéon,48.8497393,2.3381789
662,6,Paris,Trianon Rive gauche,4.0,Non renseigné,https://www.booking.com/search.html?ss=Trianon+Rive+gauche,48.8487972,2.3410105
663,6,Paris,Radisson Blu Le Dokhan's Hotel,3.0,Non renseigné,https://www.booking.com/search.html?ss=Radisson+Blu+Le+Dokhan's+Hotel,48.8663034,2.2866997
664,6,Paris,Plaza Tour Eiffel,3.0,Non renseigné,https://www.booking.com/search.html?ss=Plaza+Tour+Eiffel,48.8645222,2.2823193
665,6,Paris,Résidence Orfea Paris Magenta,3.0,Non renseigné,https://www.booking.com/search.html?ss=Résidence+Orfea+Paris+Magenta,48.8804209,2.3574353
666,6,Paris,Hôtel de la Perdrix Rouge,2.0,Rue Lassus,https://www.booking.com/search.html?ss=Hôtel+de+la+Perdrix+Rouge,48.8754147,2.3888922
667,6,Paris,Au Cadran Bleu,3.0,Non renseigné,https://www.booking.com/search.html?ss=Au+Cadran+Bleu,48.896319,2.297186
668,6,Paris,Hôtel Eiffel Villa Garibaldi,3.0,Non renseigné,https://www.booking.com/search.html?ss=Hôtel+Eiffel+Villa+Garibaldi,48.8464533,2.3058161
669,6,Paris,Hôtel Académie,4.0,Non renseigné,https://www.booking.com/search.html?ss=Hôtel+Académie,48.855222,2.330696
670,6,Paris,Citadines Austerlitz Paris,3.0,Non renseigné,https://www.booking.com/search.html?ss=Citadines+Austerlitz+Paris,48.8349012,2.3603482
671,6,Paris,Le Richemont,3.0,Non renseigné,https://www.booking.com/search.html?ss=Le+Richemont,48.8279496,2.368912
672,6,Paris,Hôtel du Triangle d'Or,3.0,Non renseigné,https://www.booking.com/search.html?ss=Hôtel+du+Triangle+d'Or,48.8704582,2.3268384
673,6,Paris,Residhome Paris Issy-les-Moulineaux,3.0,Rue du Passeur de Boulogne,https://www.booking.com/search.html?ss=Residhome+Paris+Issy-les-Moulineaux,48.8249428,2.2587038
674,6,Paris,Hôtel Cluny-Sorbonne,2.0,Non renseigné,https://www.booking.com/search.html?ss=Hôtel+Cluny-Sorbonne,48.8480352,2.3424141
675,6,Paris,Hôtel Noir,3.0,Non renseigné,https://www.booking.com/search.html?ss=Hôtel+Noir,48.8808514,2.3023626
676,6,Paris,Hôtel de Sers,5.0,Non renseigné,https://www.booking.com/search.html?ss=Hôtel+de+Sers,48.8681725,2.3003942
677,6,Paris,Hôtel Bel Ami,5.0,Rue Saint-Benoît,https://www.booking.com/search.html?ss=Hôtel+Bel+Ami,48.8548818,2.3332071
678,6,Paris,Hôtel Edouard 7,4.0,Non renseigné,https://www.booking.com/search.html?ss=Hôtel+Edouard+7,48.8683547,2.3330189
679,6,Paris,Hôtel Eiffel Trocadero,3.0,Non renseigné,https://www.booking.com/search.html?ss=Hôtel+Eiffel+Trocadero,48.8613358,2.2863597
680,6,Paris,Hôtel Franklin,3.0,Non renseigné,https://www.booking.com/search.html?ss=Hôtel+Franklin,48.8591494,2.284629
681,6,Paris,Hôtel Veryste,3.0,Non renseigné,https://www.booking.com/search.html?ss=Hôtel+Veryste,48.8763033,2.3463522
682,6,Paris,Ibis Style,3.0,Non renseigné,https://www.booking.com/search.html?ss=Ibis+Style,48.9288394,2.3403885
683,6,Paris,Auberge de Bagneux,3.0,Non renseigné,https://www.booking.com/search.html?ss=Auberge+de+Bagneux,48.8052463,2.3220926
684,6,Paris,The Peninsula Paris,3.0,Non renseigné,https://www.booking.com/search.html?ss=The+Peninsula+Paris,48.870745,2.2933072
685,6,Paris,Hôtel Mon Rêve Amadeus,3.0,Non renseigné,https://www.booking.com/search.html?ss=Hôtel+Mon+Rêve+Amadeus,48.8400097,2.2848391
686,6,Paris,Hôtel du Parc Montsouris,3.0,Rue du Parc de Montsouris,https://www.booking.com/search.html?ss=Hôtel+du+Parc+Montsouris,48.8223695,2.3345505
687,6,Paris,Best Western Empire Élysées,3.0,Non renseigné,https://www.booking.com/search.html?ss=Best+Western+Empire+Élysées,48.8779414,2.2955547
688,6,Paris,Moulin Vert,3.0,Non renseigné,https://www.booking.com/search.html?ss=Moulin+Vert,48.8314729,2.3197108
689,6,Paris,City Residence Appart Hôtel,3.0,Non renseigné,https://www.booking.com/search.html?ss=City+Residence+Appart+Hôtel,48.8176524,2.3982943
690,6,Paris,greet Hotel Boulogne Billancourt Paris,3.0,Boulevard Jean Jaurès,https://www.booking.com/search.html?ss=greet+Hotel+Boulogne+Billancourt+Paris,48.8319985,2.2442956
691,6,Paris,La Finca,3.0,Boulevard Richard-Lenoir,https://www.booking.com/search.html?ss=La+Finca,48.8582177,2.3718944
692,6,Paris,Hôtel du Cadran,3.0,Rue du Champ de Mars,https://www.booking.com/search.html?ss=Hôtel+du+Cadran,48.8565568,2.3059811
693,6,Paris,Pavillon Nation,3.0,Non renseigné,https://www.booking.com/search.html?ss=Pavillon+Nation,48.8494074,2.3987385
694,6,Paris,Pink Hotel,3.0,Rue Dugommier,https://www.booking.com/search.html?ss=Pink+Hotel,48.8399675,2.3918531
695,6,Paris,Chouette Hôtel,3.0,Rue de la Convention,https://www.booking.com/search.html?ss=Chouette+Hôtel,48.8357607,2.3019643
696,6,Paris,Le Robinet d'Or,3.0,Rue Robert Blache,https://www.booking.com/search.html?ss=Le+Robinet+d'Or,48.8780925,2.3647154
697,6,Paris,Ibis Paris Porte de Vanves,3.0,Non renseigné,https://www.booking.com/search.html?ss=Ibis+Paris+Porte+de+Vanves,48.8222717,2.2940161
698,6,Paris,Saint-Sébastien,3.0,Non renseigné,https://www.booking.com/search.html?ss=Saint-Sébastien,48.8615198,2.370998
699,6,Paris,Hôtel de bourgogne,3.0,Non renseigné,https://www.booking.com/search.html?ss=Hôtel+de+bourgogne,48.8578089,2.3768843
700,6,Paris,French rivoera,3.0,Non renseigné,https://www.booking.com/search.html?ss=French+rivoera,48.866641,2.3664307
701,6,Paris,Hôtel Le Mareuil,4.0,Non renseigné,https://www.booking.com/search.html?ss=Hôtel+Le+Mareuil,48.8659977,2.3674507
702,6,Paris,Au cœur de République,3.0,Non renseigné,https://www.booking.com/search.html?ss=Au+cœur+de+République,48.8656162,2.367688
703,6,Paris,Paris Voltaire,3.0,Rue Sedaine,https://www.booking.com/search.html?ss=Paris+Voltaire,48.8584046,2.3777246
704,6,Paris,Hôtel Marais de Launay,3.0,Rue Amelot,https://www.booking.com/search.html?ss=Hôtel+Marais+de+Launay,48.8585931,2.368554
705,6,Paris,Hôtel Embarek,3.0,Rue de Seine,https://www.booking.com/search.html?ss=Hôtel+Embarek,48.8102374,2.4161249
706,6,Paris,Hôtel de Venise,3.0,Rue Chaligny,https://www.booking.com/search.html?ss=Hôtel+de+Venise,48.8453126,2.3836601
707,6,Paris,Le 20,3.0,Non renseigné,https://www.booking.com/search.html?ss=Le+20,48.8659929,2.3685758
708,6,Paris,Moley,3.0,Non renseigné,https://www.booking.com/search.html?ss=Moley,48.8634531,2.3609298
709,6,Paris,Ideal,3.0,Non renseigné,https://www.booking.com/search.html?ss=Ideal,48.8623589,2.3732346
710,6,Paris,Le Malibu,3.0,Non renseigné,https://www.booking.com/search.html?ss=Le+Malibu,48.8762075,2.2360997
711,6,Paris,Hôtel Rhin et Danube,3.0,Non renseigné,https://www.booking.com/search.html?ss=Hôtel+Rhin+et+Danube,48.8822355,2.3930133
712,6,Paris,Tréma,3.0,Rue de Crimée,https://www.booking.com/search.html?ss=Tréma,48.8909362,2.3762313
713,6,Paris,Hôtel Murat,3.0,Non renseigné,https://www.booking.com/search.html?ss=Hôtel+Murat,48.8374147,2.2587399
714,6,Paris,Hôtel Madrigal,3.0,Boulevard Pasteur,https://www.booking.com/search.html?ss=Hôtel+Madrigal,48.8421286,2.3127395
715,6,Paris,Hôtel Joséphine,3.0,Non renseigné,https://www.booking.com/search.html?ss=Hôtel+Joséphine,48.8822668,2.3317439
716,6,Paris,R.Kipling Hôtel,4.0,Non renseigné,https://www.booking.com/search.html?ss=R.Kipling+Hôtel,48.882049,2.3316649
717,6,Paris,Hôtel Choisy,2.0,Non renseigné,https://www.booking.com/search.html?ss=Hôtel+Choisy,48.8268796,2.3591197
718,6,Paris,Ibis Paris Tour Montparnasse,3.0,Non renseigné,https://www.booking.com/search.html?ss=Ibis+Paris+Tour+Montparnasse,48.843457,2.3202557
719,6,Paris,Villa Beaumarchais,3.0,Rue des Arquebusiers,https://www.booking.com/search.html?ss=Villa+Beaumarchais,48.8590485,2.3668105
720,6,Paris,Hôtel Richmond,3.0,Non renseigné,https://www.booking.com/search.html?ss=Hôtel+Richmond,48.8795188,2.3562771
721,6,Paris,Picardy Hotel,3.0,Non renseigné,https://www.booking.com/search.html?ss=Picardy+Hotel,48.8794595,2.3567982
722,6,Paris,Hôtel Flanelles,3.0,Non renseigné,https://www.booking.com/search.html?ss=Hôtel+Flanelles,48.8794947,2.3565291
723,6,Paris,Moxy Paris Bastille,3.0,Non renseigné,https://www.booking.com/search.html?ss=Moxy+Paris+Bastille,48.8575819,2.3698609
724,6,Paris,Mary's,3.0,Non renseigné,https://www.booking.com/search.html?ss=Mary's,48.86408,2.3686697
725,6,Paris,Alhambra,3.0,rue de Malte,https://www.booking.com/search.html?ss=Alhambra,48.8639711,2.3687304
726,6,Paris,Le relais du Louvre,4.0,Non renseigné,https://www.booking.com/search.html?ss=Le+relais+du+Louvre,48.8592501,2.3409933
727,6,Paris,Hôtel de la Place du Louvre,4.0,Non renseigné,https://www.booking.com/search.html?ss=Hôtel+de+la+Place+du+Louvre,48.8592411,2.3408997
728,6,Paris,Au royal mad,3.0,Non renseigné,https://www.booking.com/search.html?ss=Au+royal+mad,48.8581355,2.3776215
729,6,Paris,Hôtel de l'Europe,3.0,Rue Sedaine,https://www.booking.com/search.html?ss=Hôtel+de+l'Europe,48.8583251,2.3780178
730,6,Paris,Cyrano,3.0,Non renseigné,https://www.booking.com/search.html?ss=Cyrano,48.8580854,2.3775006
731,6,Paris,Les Trois Collèges,3.0,Non renseigné,https://www.booking.com/search.html?ss=Les+Trois+Collèges,48.8479916,2.3423242
732,6,Paris,Hôtel Eldorado,3.0,Non renseigné,https://www.booking.com/search.html?ss=Hôtel+Eldorado,48.8850723,2.3250818
733,6,Paris,Princesse Isabelle,3.0,Rue Jean Jaurès,https://www.booking.com/search.html?ss=Princesse+Isabelle,48.8836561,2.2436015
734,6,Paris,adegio city aparthotel,3.0,Non renseigné,https://www.booking.com/search.html?ss=adegio+city+aparthotel,48.8212014,2.2928113
735,6,Paris,Hôtel central Saint-Germain,3.0,Non renseigné,https://www.booking.com/search.html?ss=Hôtel+central+Saint-Germain,48.8498319,2.3430667
736,6,Paris,Hôtel du Midi,3.0,Avenue René Coty,https://www.booking.com/search.html?ss=Hôtel+du+Midi,48.8330243,2.3325486
737,6,Paris,Hôtel Caron,3.0,Non renseigné,https://www.booking.com/search.html?ss=Hôtel+Caron,48.8550826,2.3625198
738,6,Paris,Euro Hôtel Sovereign Saint-Denis Basilique,3.0,Non renseigné,https://www.booking.com/search.html?ss=Euro+Hôtel+Sovereign+Saint-Denis+Basilique,48.9389036,2.3567663
739,6,Paris,Maison Hôtel des 5 Silences,3.0,Non renseigné,https://www.booking.com/search.html?ss=Maison+Hôtel+des+5+Silences,48.9349885,2.3498627
740,6,Paris,Art Hotel,3.0,Non renseigné,https://www.booking.com/search.html?ss=Art+Hotel,48.8774454,2.3516293
741,6,Paris,Les Tournelles,3.0,Non renseigné,https://www.booking.com/search.html?ss=Les+Tournelles,48.8569801,2.3645643
742,6,Paris,The Blake Hotel,4.0,Non renseigné,https://www.booking.com/search.html?ss=The+Blake+Hotel,48.8803561,2.3195745
743,6,Paris,New Orient Hôtel,3.0,Non renseigné,https://www.booking.com/search.html?ss=New+Orient+Hôtel,48.8802873,2.3197541
744,6,Paris,Madrid Opéra,3.0,Non renseigné,https://www.booking.com/search.html?ss=Madrid+Opéra,48.8732586,2.3431878
745,6,Paris,Amadeus,3.0,Non renseigné,https://www.booking.com/search.html?ss=Amadeus,48.8490958,2.3892034
746,6,Paris,Fred Hôtel,3.0,Avenue Villemain,https://www.booking.com/search.html?ss=Fred+Hôtel,48.83221,2.3163892
747,6,Paris,Séjours & Affaires St Mandé - Montreuil,3.0,Non renseigné,https://www.booking.com/search.html?ss=Séjours+&+Affaires+St+Mandé+-+Montreuil,48.8494398,2.4172483
748,6,Paris,Molitor,5.0,Non renseigné,https://www.booking.com/search.html?ss=Molitor,48.8448885,2.2525142
749,6,Paris,L'Univers,3.0,Non renseigné,https://www.booking.com/search.html?ss=L'Univers,48.8583528,2.4322208
750,6,Paris,Masséna,3.0,Non renseigné,https://www.booking.com/search.html?ss=Masséna,48.8719098,2.3260854
751,6,Paris,Hôtel Les Jardins d'Eiffel,3.0,Rue Amélie,https://www.booking.com/search.html?ss=Hôtel+Les+Jardins+d'Eiffel,48.8590356,2.3074168
752,6,Paris,Hoy,3.0,Non renseigné,https://www.booking.com/search.html?ss=Hoy,48.8811534,2.3401795
753,6,Paris,Hôtel Royal Phare,3.0,Non renseigné,https://www.booking.com/search.html?ss=Hôtel+Royal+Phare,48.8549212,2.3061082
754,6,Paris,Le New Provencal,3.0,Non renseigné,https://www.booking.com/search.html?ss=Le+New+Provencal,48.9086431,2.3978037
755,6,Paris,Villa 27,3.0,Non renseigné,https://www.booking.com/search.html?ss=Villa+27,48.9089672,2.398189
756,6,Paris,Hôtel Fabric,3.0,Rue de la Folie-Méricourt,https://www.booking.com/search.html?ss=Hôtel+Fabric,48.863063,2.3728001
757,6,Paris,Hôtel Fougère,3.0,Non renseigné,https://www.booking.com/search.html?ss=Hôtel+Fougère,48.8550519,2.3337134
758,6,Paris,Modern hôtel,3.0,Non renseigné,https://www.booking.com/search.html?ss=Modern+hôtel,48.9130298,2.3955071
759,6,Paris,Couto Gaia,3.0,Non renseigné,https://www.booking.com/search.html?ss=Couto+Gaia,48.9051402,2.3933622
760,6,Paris,Royal Monceau – Raffles Paris,5.0,Rue Beaujon,https://www.booking.com/search.html?ss=Royal+Monceau+–+Raffles+Paris,48.875549,2.29986
761,6,Paris,Le Méditerranéen,3.0,Non renseigné,https://www.booking.com/search.html?ss=Le+Méditerranéen,48.8480115,2.3767847
762,6,Paris,Hôtel de Latour-Maubourg,3.0,Non renseigné,https://www.booking.com/search.html?ss=Hôtel+de+Latour-Maubourg,48.8582076,2.3104628
763,6,Paris,Aparthotel Adagio Paris Vincennes,3.0,Non renseigné,https://www.booking.com/search.html?ss=Aparthotel+Adagio+Paris+Vincennes,48.8452182,2.4333844
764,6,Paris,Hôtel Môm'Art,3.0,Rue d'Orsel,https://www.booking.com/search.html?ss=Hôtel+Môm'Art,48.8836701,2.3426942
765,6,Paris,Hôtel Mimosa,3.0,Non renseigné,https://www.booking.com/search.html?ss=Hôtel+Mimosa,48.8697369,2.3561524
766,6,Paris,Nouvel Hôtel Eiffel,3.0,Non renseigné,https://www.booking.com/search.html?ss=Nouvel+Hôtel+Eiffel,48.8433684,2.3067399
767,6,Paris,Vic Eiffel,3.0,Boulevard Garibaldi,https://www.booking.com/search.html?ss=Vic+Eiffel,48.8452882,2.3099267
768,6,Paris,Art Hotel Eiffel,3.0,Non renseigné,https://www.booking.com/search.html?ss=Art+Hotel+Eiffel,48.8486989,2.2983272
769,6,Paris,Saint-Pétersbourg,3.0,Non renseigné,https://www.booking.com/search.html?ss=Saint-Pétersbourg,48.8721186,2.3280405
770,6,Paris,Hôtel du Cygne,1.0,Rue du Cygne,https://www.booking.com/search.html?ss=Hôtel+du+Cygne,48.8631266,2.3493066
771,6,Paris,AC Hotel by Marriott,3.0,Non renseigné,https://www.booking.com/search.html?ss=AC+Hotel+by+Marriott,48.8820964,2.2821515
772,6,Paris,Hôtel Warwick,4.0,Non renseigné,https://www.booking.com/search.html?ss=Hôtel+Warwick,48.8721229,2.3033103
773,6,Paris,Hôtel des Champs Élysée,4.0,Non renseigné,https://www.booking.com/search.html?ss=Hôtel+des+Champs+Élysée,48.8723588,2.3088888
774,6,Paris,Hôtel Arc Élysée,3.0,Non renseigné,https://www.booking.com/search.html?ss=Hôtel+Arc+Élysée,48.874226,2.304527
775,6,Paris,Hôtel Lancaster,5.0,Non renseigné,https://www.booking.com/search.html?ss=Hôtel+Lancaster,48.87223,2.3035311
776,6,Paris,Hôtel Rochester Champs-Élysées,3.0,Rue La Boétie,https://www.booking.com/search.html?ss=Hôtel+Rochester+Champs-Élysées,48.8723468,2.3092947
